{
"type": "FeatureCollection",
"name": "legacy",
"crs": { "type": "name", "properties": { "name": "urn:ogc:def:crs:OGC:1.3:CRS84" } },
"features": [
{ "type": "Feature", "properties": { "id": "11_1", "name": "서울 숭례문", "era": "조선시대", "category": "국보", "location": "서울특별시 중구" }, "geometry": { "type": "Point", "coordinates": [ 126.97533343190733, 37.559987052856833 ] } },
{ "type": "Feature", "properties": { "id": "11_2", "name": "서울 원각사지 십층석탑", "era": "조선시대", "category": "국보", "location": "서울특별시 종로구" }, "geometry": { "type": "Point", "coordinates": [ 126.988226979286239, 37.571505669209799 ] } },
{ "type": "Feature", "properties": { "id": "11_3", "name": "서울 북한산 신라 진흥왕 순수비", "era": "신라시대", "category": "국보", "location": "서울특별시 용산구" }, "geometry": { "type": "Point", "coordinates": [ 126.9803502416529, 37.524041377251407 ] } },
{ "type": "Feature", "properties": { "id": "11_4", "name": "여주 고달사지 승탑", "era": "고려시대", "category": "국보", "location": "경기도 여주시" }, "geometry": { "type": "Point", "coordinates": [ 127.652178860472105, 37.393895993892457 ] } },
{ "type": "Feature", "properties": { "id": "11_5", "name": "보은 법주사 쌍사자 석등", "era": "통일신라시대", "category": "국보", "location": "충청북도 보은군" }, "geometry": { "type": "Point", "coordinates": [ 127.833225663210172, 36.542206031330068 ] } },
{ "type": "Feature", "properties": { "id": "11_6", "name": "충주 탑평리 칠층석탑", "era": "통일신라시대", "category": "국보", "location": "충청북도 충주시" }, "geometry": { "type": "Point", "coordinates": [ 127.866630106287843, 37.015888604556018 ] } },
{ "type": "Feature", "properties": { "id": "11_7", "name": "천안 봉선홍경사 갈기비", "era": "고려시대", "category": "국보", "location": "충청남도 천안시" }, "geometry": { "type": "Point", "coordinates": [ 127.134727686970393, 36.94315173783481 ] } },
{ "type": "Feature", "properties": { "id": "11_8", "name": "보령 성주사지 대낭혜화상탑비", "era": "통일신라시대", "category": "국보", "location": "충청남도 보령시" }, "geometry": { "type": "Point", "coordinates": [ 126.655466472291124, 36.344691441822896 ] } },
{ "type": "Feature", "properties": { "id": "11_9", "name": "부여 정림사지 오층석탑", "era": "백제시대", "category": "국보", "location": "충청남도 부여군" }, "geometry": { "type": "Point", "coordinates": [ 126.91336219822675, 36.279306594712679 ] } },
{ "type": "Feature", "properties": { "id": "11_10", "name": "남원 실상사 백장암 삼층석탑", "era": "통일신라시대", "category": "국보", "location": "전북특별자치도 남원시" }, "geometry": { "type": "Point", "coordinates": [ 127.619971529520583, 35.442539099474594 ] } },
{ "type": "Feature", "properties": { "id": "11_11", "name": "익산 미륵사지 석탑", "era": "백제시대", "category": "국보", "location": "전북특별자치도 익산시" }, "geometry": { "type": "Point", "coordinates": [ 127.030560563624093, 36.012422297410524 ] } },
{ "type": "Feature", "properties": { "id": "11_12", "name": "구례 화엄사 각황전 앞 석등", "era": "통일신라시대", "category": "국보", "location": "전라남도 구례군" }, "geometry": { "type": "Point", "coordinates": [ 127.497468567603008, 35.257166292052503 ] } },
{ "type": "Feature", "properties": { "id": "11_13", "name": "강진 무위사 극락보전", "era": "조선시대", "category": "국보", "location": "전라남도 강진군" }, "geometry": { "type": "Point", "coordinates": [ 126.686758419229974, 34.738787662989218 ] } },
{ "type": "Feature", "properties": { "id": "11_14", "name": "영천 거조사 영산전", "era": "고려시대", "category": "국보", "location": "경상북도 영천시" }, "geometry": { "type": "Point", "coordinates": [ 128.764527446137038, 36.020138215503422 ] } },
{ "type": "Feature", "properties": { "id": "11_15", "name": "안동 봉정사 극락전", "era": "고려시대", "category": "국보", "location": "경상북도 안동시" }, "geometry": { "type": "Point", "coordinates": [ 128.66242104720132, 36.653483556039156 ] } },
{ "type": "Feature", "properties": { "id": "11_16", "name": "안동 법흥사지 칠층전탑", "era": "통일신라시대", "category": "국보", "location": "경상북도 안동시" }, "geometry": { "type": "Point", "coordinates": [ 128.74639240960343, 36.565975259053147 ] } },
{ "type": "Feature", "properties": { "id": "11_17", "name": "영주 부석사 무량수전 앞 석등", "era": "통일신라시대", "category": "국보", "location": "경상북도 영주시" }, "geometry": { "type": "Point", "coordinates": [ 128.687451374007225, 36.998805184837458 ] } },
{ "type": "Feature", "properties": { "id": "11_18", "name": "영주 부석사 무량수전", "era": "고려시대", "category": "국보", "location": "경상북도 영주시" }, "geometry": { "type": "Point", "coordinates": [ 128.68748555044661, 36.998953988026294 ] } },
{ "type": "Feature", "properties": { "id": "11_19", "name": "영주 부석사 조사당", "era": "고려시대", "category": "국보", "location": "경상북도 영주시" }, "geometry": { "type": "Point", "coordinates": [ 128.688515390677111, 36.999601855717827 ] } },
{ "type": "Feature", "properties": { "id": "11_20", "name": "경주 불국사 다보탑", "era": "통일신라시대", "category": "국보", "location": "경상북도 경주시" }, "geometry": { "type": "Point", "coordinates": [ 129.332255412975059, 35.789995243269232 ] } },
{ "type": "Feature", "properties": { "id": "11_21", "name": "경주 불국사 삼층석탑", "era": "통일신라시대", "category": "국보", "location": "경상북도 경주시" }, "geometry": { "type": "Point", "coordinates": [ 129.331978986811521, 35.789958254989259 ] } },
{ "type": "Feature", "properties": { "id": "11_22", "name": "경주 불국사 연화교 및 칠보교", "era": "통일신라시대", "category": "국보", "location": "경상북도 경주시" }, "geometry": { "type": "Point", "coordinates": [ 129.331642783196344, 35.789718963767328 ] } },
{ "type": "Feature", "properties": { "id": "11_23", "name": "경주 불국사 청운교 및 백운교", "era": "통일신라시대", "category": "국보", "location": "경상북도 경주시" }, "geometry": { "type": "Point", "coordinates": [ 129.332156738487697, 35.789721457719715 ] } },
{ "type": "Feature", "properties": { "id": "11_24", "name": "경주 석굴암 석굴", "era": "통일신라시대", "category": "국보", "location": "경상북도 경주시" }, "geometry": { "type": "Point", "coordinates": [ 129.350196525003156, 35.79491673168036 ] } },
{ "type": "Feature", "properties": { "id": "11_25", "name": "경주 태종무열왕릉비", "era": "통일신라시대", "category": "국보", "location": "경상북도 경주시" }, "geometry": { "type": "Point", "coordinates": [ 129.188548279374373, 35.825133558985321 ] } },
{ "type": "Feature", "properties": { "id": "11_26", "name": "경주 백률사 금동약사여래입상", "era": "통일신라시대", "category": "국보", "location": "경상북도 경주시" }, "geometry": { "type": "Point", "coordinates": [ 129.227912382125908, 35.829387426854673 ] } },
{ "type": "Feature", "properties": { "id": "11_27", "name": "성덕대왕신종", "era": "통일신라시대", "category": "국보", "location": "경상북도 경주시" }, "geometry": { "type": "Point", "coordinates": [ 129.227912382125908, 35.829387426854673 ] } },
{ "type": "Feature", "properties": { "id": "11_28", "name": "경주 분황사 모전석탑", "era": "신라시대", "category": "국보", "location": "경상북도 경주시" }, "geometry": { "type": "Point", "coordinates": [ 129.23364461043235, 35.840586106356469 ] } },
{ "type": "Feature", "properties": { "id": "11_29", "name": "경주 첨성대", "era": "신라시대", "category": "국보", "location": "경상북도 경주시" }, "geometry": { "type": "Point", "coordinates": [ 129.218988260330576, 35.834724287661757 ] } },
{ "type": "Feature", "properties": { "id": "11_30", "name": "창녕 신라 진흥왕 척경비", "era": "신라시대", "category": "국보", "location": "경상남도 창녕군" }, "geometry": { "type": "Point", "coordinates": [ 128.502645111659717, 35.540725120666615 ] } },
{ "type": "Feature", "properties": { "id": "11_31", "name": "창녕 술정리 동 삼층석탑", "era": "통일신라시대", "category": "국보", "location": "경상남도 창녕군" }, "geometry": { "type": "Point", "coordinates": [ 128.496103632196139, 35.539596321375178 ] } },
{ "type": "Feature", "properties": { "id": "11_32", "name": "구례 화엄사 사사자 삼층석탑", "era": "통일신라시대", "category": "국보", "location": "전라남도 구례군" }, "geometry": { "type": "Point", "coordinates": [ 127.496533031831618, 35.256985209692672 ] } },
{ "type": "Feature", "properties": { "id": "11_33", "name": "경주 황복사지 삼층석탑", "era": "통일신라시대", "category": "국보", "location": "경상북도 경주시" }, "geometry": { "type": "Point", "coordinates": [ 129.242388174075614, 35.832208544162569 ] } },
{ "type": "Feature", "properties": { "id": "11_34", "name": "경주 고선사지 삼층석탑", "era": "통일신라시대", "category": "국보", "location": "경상북도 경주시" }, "geometry": { "type": "Point", "coordinates": [ 129.229057846891664, 35.828142500796936 ] } },
{ "type": "Feature", "properties": { "id": "11_35", "name": "경주 나원리 오층석탑", "era": "통일신라시대", "category": "국보", "location": "경상북도 경주시" }, "geometry": { "type": "Point", "coordinates": [ 129.212255162442887, 35.893607947093791 ] } },
{ "type": "Feature", "properties": { "id": "11_36", "name": "경주 정혜사지 십삼층석탑", "era": "통일신라시대", "category": "국보", "location": "경상북도 경주시" }, "geometry": { "type": "Point", "coordinates": [ 129.157669825184513, 36.019047388133487 ] } },
{ "type": "Feature", "properties": { "id": "11_37", "name": "청주 용두사지 철당간", "era": "고려시대", "category": "국보", "location": "충청북도 청주시" }, "geometry": { "type": "Point", "coordinates": [ 127.48975436179046, 36.633088028756148 ] } },
{ "type": "Feature", "properties": { "id": "11_38", "name": "장흥 보림사 남·북 삼층석탑 및 석등", "era": "통일신라시대", "category": "국보", "location": "전라남도 장흥군" }, "geometry": { "type": "Point", "coordinates": [ 126.896262220531028, 34.807755643165258 ] } },
{ "type": "Feature", "properties": { "id": "11_39", "name": "하동 쌍계사 진감선사탑비", "era": "통일신라시대", "category": "국보", "location": "경상남도 하동군" }, "geometry": { "type": "Point", "coordinates": [ 127.650509331446926, 35.232485722877833 ] } },
{ "type": "Feature", "properties": { "id": "11_40", "name": "평창 월정사 팔각 구층석탑", "era": "고려시대", "category": "국보", "location": "강원특별자치도 평창군" }, "geometry": { "type": "Point", "coordinates": [ 128.592070081831054, 37.731603807373084 ] } },
{ "type": "Feature", "properties": { "id": "11_41", "name": "예산 수덕사 대웅전", "era": "고려시대", "category": "국보", "location": "충청남도 예산군" }, "geometry": { "type": "Point", "coordinates": [ 126.622672766718011, 36.663284532530319 ] } },
{ "type": "Feature", "properties": { "id": "11_42", "name": "영암 도갑사 해탈문", "era": "조선시대", "category": "국보", "location": "전라남도 영암군" }, "geometry": { "type": "Point", "coordinates": [ 126.662111723723143, 34.752754304846164 ] } },
{ "type": "Feature", "properties": { "id": "11_43", "name": "강릉 임영관 삼문", "era": "고려시대", "category": "국보", "location": "강원특별자치도 강릉시" }, "geometry": { "type": "Point", "coordinates": [ 128.891896970488432, 37.75294128696887 ] } },
{ "type": "Feature", "properties": { "id": "11_44", "name": "합천 해인사 장경판전", "era": "조선시대", "category": "국보", "location": "경상남도 합천군" }, "geometry": { "type": "Point", "coordinates": [ 128.09872040349083, 35.8016183671552 ] } },
{ "type": "Feature", "properties": { "id": "11_45", "name": "구례 연곡사 동 승탑", "era": "통일신라시대", "category": "국보", "location": "전라남도 구례군" }, "geometry": { "type": "Point", "coordinates": [ 127.588372078236858, 35.255223102596034 ] } },
{ "type": "Feature", "properties": { "id": "11_46", "name": "구례 연곡사 북 승탑", "era": "고려시대", "category": "국보", "location": "전라남도 구례군" }, "geometry": { "type": "Point", "coordinates": [ 127.588262077237303, 35.25610338550625 ] } },
{ "type": "Feature", "properties": { "id": "11_47", "name": "보은 법주사 팔상전", "era": "조선시대", "category": "국보", "location": "충청북도 보은군" }, "geometry": { "type": "Point", "coordinates": [ 127.833099261654368, 36.541989686811199 ] } },
{ "type": "Feature", "properties": { "id": "11_48", "name": "순천 송광사 국사전", "era": "조선시대", "category": "국보", "location": "전라남도 순천시" }, "geometry": { "type": "Point", "coordinates": [ 127.276485757925769, 35.001889677647036 ] } },
{ "type": "Feature", "properties": { "id": "11_49", "name": "화순 쌍봉사 철감선사탑", "era": "통일신라시대", "category": "국보", "location": "전라남도 화순군" }, "geometry": { "type": "Point", "coordinates": [ 127.059203864666216, 34.888300571507102 ] } },
{ "type": "Feature", "properties": { "id": "11_50", "name": "원주 법천사지 지광국사탑비", "era": "고려시대", "category": "국보", "location": "강원특별자치도 원주시" }, "geometry": { "type": "Point", "coordinates": [ 127.764712816500847, 37.209629070216927 ] } },
{ "type": "Feature", "properties": { "id": "11_51", "name": "청자 사자형뚜껑 향로", "era": "고려시대", "category": "국보", "location": "서울특별시 용산구" }, "geometry": { "type": "Point", "coordinates": [ 126.9803502416529, 37.524041377251407 ] } },
{ "type": "Feature", "properties": { "id": "11_52", "name": "청자 어룡형 주전자", "era": "고려시대", "category": "국보", "location": "서울특별시 용산구" }, "geometry": { "type": "Point", "coordinates": [ 126.9803502416529, 37.524041377251407 ] } },
{ "type": "Feature", "properties": { "id": "11_53", "name": "김제 금산사 미륵전", "era": "조선시대", "category": "국보", "location": "전북특별자치도 김제시" }, "geometry": { "type": "Point", "coordinates": [ 127.0539945090445, 35.723119580994961 ] } },
{ "type": "Feature", "properties": { "id": "11_54", "name": "보은 법주사 석련지", "era": "통일신라시대", "category": "국보", "location": "충청북도 보은군" }, "geometry": { "type": "Point", "coordinates": [ 127.832482317864162, 36.541523742447794 ] } },
{ "type": "Feature", "properties": { "id": "11_55", "name": "구례 화엄사 각황전", "era": "조선시대", "category": "국보", "location": "전라남도 구례군" }, "geometry": { "type": "Point", "coordinates": [ 127.497211050360448, 35.257238173521138 ] } },
{ "type": "Feature", "properties": { "id": "11_56", "name": "의성 탑리리 오층석탑", "era": "통일신라시대", "category": "국보", "location": "경상북도 의성군" }, "geometry": { "type": "Point", "coordinates": [ 128.683837493675156, 36.255210401146194 ] } },
{ "type": "Feature", "properties": { "id": "11_57", "name": "금동미륵보살반가사유상(1962-1)", "era": "삼국시대", "category": "국보", "location": "서울특별시 용산구" }, "geometry": { "type": "Point", "coordinates": [ 126.9803502416529, 37.524041377251407 ] } },
{ "type": "Feature", "properties": { "id": "11_58", "name": "경주 구황동 금제여래좌상", "era": "통일신라시대", "category": "국보", "location": "서울특별시 용산구" }, "geometry": { "type": "Point", "coordinates": [ 126.9803502416529, 37.524041377251407 ] } },
{ "type": "Feature", "properties": { "id": "11_59", "name": "경주 구황동 금제여래입상", "era": "통일신라시대", "category": "국보", "location": "서울특별시 용산구" }, "geometry": { "type": "Point", "coordinates": [ 126.9803502416529, 37.524041377251407 ] } },
{ "type": "Feature", "properties": { "id": "11_60", "name": "경주 감산사 석조미륵보살입상", "era": "", "category": "국보", "location": "서울특별시 용산구" }, "geometry": { "type": "Point", "coordinates": [ 126.9803502416529, 37.524041377251407 ] } },
{ "type": "Feature", "properties": { "id": "11_61", "name": "경주 감산사 석조아미타여래입상", "era": "통일신라시대", "category": "국보", "location": "서울특별시 용산구" }, "geometry": { "type": "Point", "coordinates": [ 126.9803502416529, 37.524041377251407 ] } },
{ "type": "Feature", "properties": { "id": "11_62", "name": "금동미륵보살반가사유상(1962-2)", "era": "삼국시대", "category": "국보", "location": "서울특별시 용산구" }, "geometry": { "type": "Point", "coordinates": [ 126.9803502416529, 37.524041377251407 ] } },
{ "type": "Feature", "properties": { "id": "11_63", "name": "서산 용현리 마애여래삼존상", "era": "백제시대", "category": "국보", "location": "충청남도 서산시" }, "geometry": { "type": "Point", "coordinates": [ 126.605240913936683, 36.773809370225131 ] } },
{ "type": "Feature", "properties": { "id": "11_64", "name": "개성 경천사지 십층석탑", "era": "고려시대", "category": "국보", "location": "서울특별시 용산구" }, "geometry": { "type": "Point", "coordinates": [ 126.9803502416529, 37.524041377251407 ] } },
{ "type": "Feature", "properties": { "id": "11_65", "name": "금관총 금관 및 금제 관식", "era": "신라시대", "category": "국보", "location": "경상북도 경주시" }, "geometry": { "type": "Point", "coordinates": [ 129.227912382125908, 35.829387426854673 ] } },
{ "type": "Feature", "properties": { "id": "11_66", "name": "금관총 금제 허리띠", "era": "신라시대", "category": "국보", "location": "경상북도 경주시" }, "geometry": { "type": "Point", "coordinates": [ 129.227912382125908, 35.829387426854673 ] } },
{ "type": "Feature", "properties": { "id": "11_67", "name": "평양 석암리 금제 띠고리", "era": "삼한시대", "category": "국보", "location": "서울특별시 용산구" }, "geometry": { "type": "Point", "coordinates": [ 126.9803502416529, 37.524041377251407 ] } },
{ "type": "Feature", "properties": { "id": "11_68", "name": "경주 부부총 금귀걸이", "era": "신라시대", "category": "국보", "location": "서울특별시 용산구" }, "geometry": { "type": "Point", "coordinates": [ 126.9803502416529, 37.524041377251407 ] } },
{ "type": "Feature", "properties": { "id": "11_69", "name": "도기 기마인물형 명기", "era": "신라시대", "category": "국보", "location": "서울특별시 용산구" }, "geometry": { "type": "Point", "coordinates": [ 126.9803502416529, 37.524041377251407 ] } },
{ "type": "Feature", "properties": { "id": "11_70", "name": "청동 은입사 포류수금문 정병", "era": "고려시대", "category": "국보", "location": "서울특별시 용산구" }, "geometry": { "type": "Point", "coordinates": [ 126.9803502416529, 37.524041377251407 ] } },
{ "type": "Feature", "properties": { "id": "11_71", "name": "백자 철화포도원숭이문 항아리", "era": "조선시대", "category": "국보", "location": "서울특별시 용산구" }, "geometry": { "type": "Point", "coordinates": [ 126.9803502416529, 37.524041377251407 ] } },
{ "type": "Feature", "properties": { "id": "11_72", "name": "청자 참외모양 병", "era": "고려시대", "category": "국보", "location": "서울특별시 용산구" }, "geometry": { "type": "Point", "coordinates": [ 126.9803502416529, 37.524041377251407 ] } },
{ "type": "Feature", "properties": { "id": "11_73", "name": "청자 투각칠보문뚜껑 향로", "era": "고려시대", "category": "국보", "location": "서울특별시 용산구" }, "geometry": { "type": "Point", "coordinates": [ 126.9803502416529, 37.524041377251407 ] } },
{ "type": "Feature", "properties": { "id": "11_74", "name": "청자 구룡형 주전자", "era": "고려시대", "category": "국보", "location": "서울특별시 용산구" }, "geometry": { "type": "Point", "coordinates": [ 126.9803502416529, 37.524041377251407 ] } },
{ "type": "Feature", "properties": { "id": "11_75", "name": "청자 음각연화당초문 매병", "era": "고려시대", "category": "국보", "location": "서울특별시 용산구" }, "geometry": { "type": "Point", "coordinates": [ 126.9803502416529, 37.524041377251407 ] } },
{ "type": "Feature", "properties": { "id": "11_76", "name": "청자 상감모란문 항아리", "era": "고려시대", "category": "국보", "location": "서울특별시 용산구" }, "geometry": { "type": "Point", "coordinates": [ 126.9803502416529, 37.524041377251407 ] } },
{ "type": "Feature", "properties": { "id": "11_78", "name": "개성 남계원지 칠층석탑", "era": "고려시대", "category": "국보", "location": "서울특별시 용산구" }, "geometry": { "type": "Point", "coordinates": [ 126.981001851942793, 37.522285954910927 ] } },
{ "type": "Feature", "properties": { "id": "11_79", "name": "충주 정토사지 홍법국사탑", "era": "고려시대", "category": "국보", "location": "서울특별시 용산구" }, "geometry": { "type": "Point", "coordinates": [ 126.9803502416529, 37.524041377251407 ] } },
{ "type": "Feature", "properties": { "id": "11_80", "name": "광양 중흥산성 쌍사자 석등", "era": "통일신라시대", "category": "국보", "location": "광주광역시 북구" }, "geometry": { "type": "Point", "coordinates": [ 126.883091194016259, 35.1890949680053 ] } },
{ "type": "Feature", "properties": { "id": "11_81", "name": "전 원주 흥법사지 염거화상탑", "era": "통일신라시대", "category": "국보", "location": "서울특별시 용산구" }, "geometry": { "type": "Point", "coordinates": [ 126.980632060057573, 37.523511660455874 ] } },
{ "type": "Feature", "properties": { "id": "11_82", "name": "계유명전씨아미타불비상", "era": "통일신라시대", "category": "국보", "location": "충청북도 청주시" }, "geometry": { "type": "Point", "coordinates": [ 127.512007838177283, 36.649664229703731 ] } },
{ "type": "Feature", "properties": { "id": "11_83", "name": "군위 아미타여래삼존 석굴", "era": "통일신라시대", "category": "국보", "location": "대구광역시 군위군" }, "geometry": { "type": "Point", "coordinates": [ 128.641104643283967, 36.04899593139961 ] } },
{ "type": "Feature", "properties": { "id": "11_84", "name": "이제현 초상", "era": "고려시대", "category": "국보", "location": "서울특별시 용산구" }, "geometry": { "type": "Point", "coordinates": [ 126.9803502416529, 37.524041377251407 ] } },
{ "type": "Feature", "properties": { "id": "11_85", "name": "안향 초상", "era": "고려시대", "category": "국보", "location": "경상북도 영주시" }, "geometry": { "type": "Point", "coordinates": [ 128.582143373769185, 36.925802654356971 ] } },
{ "type": "Feature", "properties": { "id": "11_87", "name": "청자 철화양류문 통형 병", "era": "고려시대", "category": "국보", "location": "서울특별시 용산구" }, "geometry": { "type": "Point", "coordinates": [ 126.9803502416529, 37.524041377251407 ] } },
{ "type": "Feature", "properties": { "id": "11_88", "name": "청자 상감모란국화문 참외모양 병", "era": "고려시대", "category": "국보", "location": "서울특별시 용산구" }, "geometry": { "type": "Point", "coordinates": [ 126.9803502416529, 37.524041377251407 ] } },
{ "type": "Feature", "properties": { "id": "11_89", "name": "청자 상감당초문 완", "era": "고려시대", "category": "국보", "location": "서울특별시 용산구" }, "geometry": { "type": "Point", "coordinates": [ 126.9803502416529, 37.524041377251407 ] } },
{ "type": "Feature", "properties": { "id": "11_90", "name": "청자 상감모란문 표주박모양 주전자", "era": "고려시대", "category": "국보", "location": "서울특별시 용산구" }, "geometry": { "type": "Point", "coordinates": [ 126.9803502416529, 37.524041377251407 ] } },
{ "type": "Feature", "properties": { "id": "11_91", "name": "금동연가7년명여래입상", "era": "고구려시대", "category": "국보", "location": "서울특별시 용산구" }, "geometry": { "type": "Point", "coordinates": [ 126.9803502416529, 37.524041377251407 ] } },
{ "type": "Feature", "properties": { "id": "11_92", "name": "양양 진전사지 삼층석탑", "era": "통일신라시대", "category": "국보", "location": "강원특별자치도 양양군" }, "geometry": { "type": "Point", "coordinates": [ 128.549741410381131, 38.1210972880247 ] } },
{ "type": "Feature", "properties": { "id": "11_93", "name": "익산 왕궁리 오층석탑 사리장엄구", "era": "통일신라시대", "category": "국보", "location": "전북특별자치도 전주시" }, "geometry": { "type": "Point", "coordinates": [ 127.089804075637531, 35.801246741478288 ] } },
{ "type": "Feature", "properties": { "id": "11_94", "name": "강릉 한송사지 석조보살좌상", "era": "고려시대", "category": "국보", "location": "강원특별자치도 춘천시" }, "geometry": { "type": "Point", "coordinates": [ 127.753878072727687, 37.863981488011504 ] } },
{ "type": "Feature", "properties": { "id": "11_95", "name": "녹유골호(부석제외함)", "era": "통일신라시대", "category": "국보", "location": "서울특별시 용산구" }, "geometry": { "type": "Point", "coordinates": [ 126.9803502416529, 37.524041377251407 ] } },
{ "type": "Feature", "properties": { "id": "11_96", "name": "서울 삼양동 금동관음보살입상", "era": "삼국시대", "category": "국보", "location": "서울특별시 용산구" }, "geometry": { "type": "Point", "coordinates": [ 126.9803502416529, 37.524041377251407 ] } },
{ "type": "Feature", "properties": { "id": "11_97", "name": "구미 죽장리 오층석탑", "era": "통일신라시대", "category": "국보", "location": "경상북도 구미시" }, "geometry": { "type": "Point", "coordinates": [ 128.28171451148566, 36.248560301949944 ] } },
{ "type": "Feature", "properties": { "id": "11_98", "name": "고려말 화령부 호적 관련 고문서", "era": "고려시대", "category": "국보", "location": "서울특별시 용산구" }, "geometry": { "type": "Point", "coordinates": [ 126.9803502416529, 37.524041377251407 ] } },
{ "type": "Feature", "properties": { "id": "11_99", "name": "화순 대곡리 청동기 일괄", "era": "미상", "category": "국보", "location": "광주광역시 북구" }, "geometry": { "type": "Point", "coordinates": [ 126.883091194016259, 35.1890949680053 ] } },
{ "type": "Feature", "properties": { "id": "11_100", "name": "영암 월출산 마애여래좌상", "era": "통일신라시대", "category": "국보", "location": "전라남도 영암군" }, "geometry": { "type": "Point", "coordinates": [ 126.690501185082127, 34.763860396587127 ] } },
{ "type": "Feature", "properties": { "id": "11_101", "name": "귀면 청동로", "era": "고려시대", "category": "국보", "location": "서울특별시 용산구" }, "geometry": { "type": "Point", "coordinates": [ 126.9803502416529, 37.524041377251407 ] } },
{ "type": "Feature", "properties": { "id": "11_102", "name": "울주 천전리 명문과 암각화", "era": "선사시대", "category": "국보", "location": "울산광역시 울주군" }, "geometry": { "type": "Point", "coordinates": [ 129.175078168328895, 35.614325023905629 ] } },
{ "type": "Feature", "properties": { "id": "11_103", "name": "십칠사찬고금통요 권16", "era": "조선시대", "category": "국보", "location": "서울특별시 관악구" }, "geometry": { "type": "Point", "coordinates": [ 126.950453273550607, 37.462350668748684 ] } },
{ "type": "Feature", "properties": { "id": "11_104", "name": "십칠사찬고금통요 권17", "era": "조선시대", "category": "국보", "location": "서울특별시 서초구" }, "geometry": { "type": "Point", "coordinates": [ 127.003037812140889, 37.497482832101362 ] } },
{ "type": "Feature", "properties": { "id": "11_105", "name": "송조표전총류 권7", "era": "조선시대", "category": "국보", "location": "서울특별시 관악구" }, "geometry": { "type": "Point", "coordinates": [ 126.950453273550607, 37.462350668748684 ] } },
{ "type": "Feature", "properties": { "id": "11_106", "name": "조선왕조실록 정족산사고본", "era": "조선시대", "category": "국보", "location": "서울특별시 관악구" }, "geometry": { "type": "Point", "coordinates": [ 126.950453273550607, 37.462350668748684 ] } },
{ "type": "Feature", "properties": { "id": "11_107", "name": "조선왕조실록 오대산사고본", "era": "조선시대", "category": "국보", "location": "서울특별시 관악구" }, "geometry": { "type": "Point", "coordinates": [ 126.950453273550607, 37.462350668748684 ] } },
{ "type": "Feature", "properties": { "id": "11_108", "name": "조선왕조실록 적상산사고본", "era": "조선시대", "category": "국보", "location": "서울특별시 관악구" }, "geometry": { "type": "Point", "coordinates": [ 126.950453273550607, 37.462350668748684 ] } },
{ "type": "Feature", "properties": { "id": "11_109", "name": "비변사등록", "era": "조선시대", "category": "국보", "location": "서울특별시 관악구" }, "geometry": { "type": "Point", "coordinates": [ 126.950453273550607, 37.462350668748684 ] } },
{ "type": "Feature", "properties": { "id": "11_110", "name": "일성록", "era": "조선시대", "category": "국보", "location": "서울특별시 관악구" }, "geometry": { "type": "Point", "coordinates": [ 126.950453273550607, 37.462350668748684 ] } },
{ "type": "Feature", "properties": { "id": "11_111", "name": "무령왕 금제 관식", "era": "백제시대", "category": "국보", "location": "충청남도 공주시" }, "geometry": { "type": "Point", "coordinates": [ 127.112372995153365, 36.465599699222629 ] } },
{ "type": "Feature", "properties": { "id": "11_112", "name": "무령왕비 금제 관식", "era": "백제시대", "category": "국보", "location": "서울특별시 용산구" }, "geometry": { "type": "Point", "coordinates": [ 126.9803502416529, 37.524041377251407 ] } },
{ "type": "Feature", "properties": { "id": "11_113", "name": "무령왕 금귀걸이", "era": "백제시대", "category": "국보", "location": "충청남도 공주시" }, "geometry": { "type": "Point", "coordinates": [ 127.112372995153365, 36.465599699222629 ] } },
{ "type": "Feature", "properties": { "id": "11_114", "name": "무령왕비 금귀걸이", "era": "백제시대", "category": "국보", "location": "서울특별시 용산구" }, "geometry": { "type": "Point", "coordinates": [ 126.9803502416529, 37.524041377251407 ] } },
{ "type": "Feature", "properties": { "id": "11_115", "name": "무령왕비 금목걸이", "era": "백제시대", "category": "국보", "location": "충청남도 공주시" }, "geometry": { "type": "Point", "coordinates": [ 127.112372995153365, 36.465599699222629 ] } },
{ "type": "Feature", "properties": { "id": "11_116", "name": "무령왕 금제 뒤꽂이", "era": "백제시대", "category": "국보", "location": "충청남도 공주시" }, "geometry": { "type": "Point", "coordinates": [ 127.112372995153365, 36.465599699222629 ] } },
{ "type": "Feature", "properties": { "id": "11_117", "name": "무령왕비 은팔찌", "era": "백제시대", "category": "국보", "location": "충청남도 공주시" }, "geometry": { "type": "Point", "coordinates": [ 127.112372995153365, 36.465599699222629 ] } },
{ "type": "Feature", "properties": { "id": "11_118", "name": "무령왕릉 청동거울 일괄", "era": "백제시대", "category": "국보", "location": "충청남도 공주시" }, "geometry": { "type": "Point", "coordinates": [ 127.112372995153365, 36.465599699222629 ] } },
{ "type": "Feature", "properties": { "id": "11_119", "name": "무령왕릉 석수", "era": "백제시대", "category": "국보", "location": "충청남도 공주시" }, "geometry": { "type": "Point", "coordinates": [ 127.112372995153365, 36.465599699222629 ] } },
{ "type": "Feature", "properties": { "id": "11_120", "name": "무령왕릉 지석", "era": "백제시대", "category": "국보", "location": "충청남도 공주시" }, "geometry": { "type": "Point", "coordinates": [ 127.112372995153365, 36.465599699222629 ] } },
{ "type": "Feature", "properties": { "id": "11_121", "name": "무령왕비 베개", "era": "백제시대", "category": "국보", "location": "충청남도 공주시" }, "geometry": { "type": "Point", "coordinates": [ 127.112372995153365, 36.465599699222629 ] } },
{ "type": "Feature", "properties": { "id": "11_122", "name": "무령왕 발받침", "era": "백제시대", "category": "국보", "location": "충청남도 공주시" }, "geometry": { "type": "Point", "coordinates": [ 127.112372995153365, 36.465599699222629 ] } },
{ "type": "Feature", "properties": { "id": "11_123", "name": "백자 철화매죽문 항아리", "era": "조선시대", "category": "국보", "location": "서울특별시 용산구" }, "geometry": { "type": "Point", "coordinates": [ 126.9803502416529, 37.524041377251407 ] } },
{ "type": "Feature", "properties": { "id": "11_124", "name": "청자 인물형 주전자", "era": "고려시대", "category": "국보", "location": "서울특별시 용산구" }, "geometry": { "type": "Point", "coordinates": [ 126.9803502416529, 37.524041377251407 ] } },
{ "type": "Feature", "properties": { "id": "11_125", "name": "백자 동화매국문 병", "era": "조선시대", "category": "국보", "location": "서울특별시 용산구" }, "geometry": { "type": "Point", "coordinates": [ 126.9803502416529, 37.524041377251407 ] } },
{ "type": "Feature", "properties": { "id": "11_126", "name": "백자 청화매조죽문 유개항아리", "era": "조선시대", "category": "국보", "location": "서울특별시 용산구" }, "geometry": { "type": "Point", "coordinates": [ 126.9803502416529, 37.524041377251407 ] } },
{ "type": "Feature", "properties": { "id": "11_127", "name": "백자 상감연화당초문 대접", "era": "조선시대", "category": "국보", "location": "서울특별시 용산구" }, "geometry": { "type": "Point", "coordinates": [ 126.9803502416529, 37.524041377251407 ] } },
{ "type": "Feature", "properties": { "id": "11_128", "name": "분청사기 음각어문 편병", "era": "조선시대", "category": "국보", "location": "서울특별시 용산구" }, "geometry": { "type": "Point", "coordinates": [ 126.9803502416529, 37.524041377251407 ] } },
{ "type": "Feature", "properties": { "id": "11_129", "name": "김정희 필 세한도", "era": "조선시대", "category": "국보", "location": "서울특별시 용산구" }, "geometry": { "type": "Point", "coordinates": [ 126.9803502416529, 37.524041377251407 ] } },
{ "type": "Feature", "properties": { "id": "11_130", "name": "구미 선산읍 금동여래입상", "era": "삼국시대", "category": "국보", "location": "대구광역시 수성구" }, "geometry": { "type": "Point", "coordinates": [ 128.637925230409166, 35.845859072139078 ] } },
{ "type": "Feature", "properties": { "id": "11_131", "name": "구미 선산읍 금동보살입상(1976-1)", "era": "삼국시대", "category": "국보", "location": "대구광역시 수성구" }, "geometry": { "type": "Point", "coordinates": [ 128.637925230409166, 35.845859072139078 ] } },
{ "type": "Feature", "properties": { "id": "11_132", "name": "구미 선산읍 금동보살입상(1976-2)", "era": "삼국시대", "category": "국보", "location": "대구광역시 수성구" }, "geometry": { "type": "Point", "coordinates": [ 128.637925230409166, 35.845859072139078 ] } },
{ "type": "Feature", "properties": { "id": "11_133", "name": "상지은니 묘법연화경", "era": "고려시대", "category": "국보", "location": "서울특별시 용산구" }, "geometry": { "type": "Point", "coordinates": [ 126.9803502416529, 37.524041377251407 ] } },
{ "type": "Feature", "properties": { "id": "11_134", "name": "양평 신화리 금동여래입상", "era": "삼국시대", "category": "국보", "location": "서울특별시 용산구" }, "geometry": { "type": "Point", "coordinates": [ 126.9803502416529, 37.524041377251407 ] } },
{ "type": "Feature", "properties": { "id": "11_135", "name": "영양 산해리 오층모전석탑", "era": "통일신라시대", "category": "국보", "location": "경상북도 영양군" }, "geometry": { "type": "Point", "coordinates": [ 129.069494177384229, 36.584871949866873 ] } },
{ "type": "Feature", "properties": { "id": "11_136", "name": "천마총 금관", "era": "신라시대", "category": "국보", "location": "경상북도 경주시" }, "geometry": { "type": "Point", "coordinates": [ 129.227912382125908, 35.829387426854673 ] } },
{ "type": "Feature", "properties": { "id": "11_137", "name": "천마총 관모", "era": "신라시대", "category": "국보", "location": "경상북도 경주시" }, "geometry": { "type": "Point", "coordinates": [ 129.227912382125908, 35.829387426854673 ] } },
{ "type": "Feature", "properties": { "id": "11_138", "name": "천마총 금제 허리띠", "era": "신라시대", "category": "국보", "location": "경상북도 경주시" }, "geometry": { "type": "Point", "coordinates": [ 129.227912382125908, 35.829387426854673 ] } },
{ "type": "Feature", "properties": { "id": "11_139", "name": "황남대총 북분 금관", "era": "신라시대", "category": "국보", "location": "서울특별시 용산구" }, "geometry": { "type": "Point", "coordinates": [ 126.9803502416529, 37.524041377251407 ] } },
{ "type": "Feature", "properties": { "id": "11_140", "name": "황남대총 북분 금제 허리띠", "era": "신라시대", "category": "국보", "location": "서울특별시 용산구" }, "geometry": { "type": "Point", "coordinates": [ 126.9803502416529, 37.524041377251407 ] } },
{ "type": "Feature", "properties": { "id": "11_141", "name": "황남대총 남분 유리병 및 잔", "era": "신라시대", "category": "국보", "location": "서울특별시 용산구" }, "geometry": { "type": "Point", "coordinates": [ 126.9803502416529, 37.524041377251407 ] } },
{ "type": "Feature", "properties": { "id": "11_142", "name": "토우장식 장경호", "era": "신라시대", "category": "국보", "location": "서울특별시 용산구" }, "geometry": { "type": "Point", "coordinates": [ 126.9803502416529, 37.524041377251407 ] } },
{ "type": "Feature", "properties": { "id": "11_143", "name": "충주 청룡사지 보각국사탑", "era": "조선시대", "category": "국보", "location": "충청북도 충주시" }, "geometry": { "type": "Point", "coordinates": [ 127.838093516559056, 37.130872593839605 ] } },
{ "type": "Feature", "properties": { "id": "11_144", "name": "단양 신라 적성비", "era": "신라시대", "category": "국보", "location": "충청북도 단양군" }, "geometry": { "type": "Point", "coordinates": [ 128.32102592062688, 36.944434452293962 ] } },
{ "type": "Feature", "properties": { "id": "11_145", "name": "경주 단석산 신선사 마애불상군", "era": "신라시대", "category": "국보", "location": "경상북도 경주시" }, "geometry": { "type": "Point", "coordinates": [ 129.081946566735752, 35.796856770784984 ] } },
{ "type": "Feature", "properties": { "id": "11_146", "name": "금동보살입상(1979)", "era": "통일신라시대", "category": "국보", "location": "부산광역시 남구" }, "geometry": { "type": "Point", "coordinates": [ 129.094148181210613, 35.129521703137932 ] } },
{ "type": "Feature", "properties": { "id": "11_147", "name": "봉화 북지리 마애여래좌상", "era": "신라시대", "category": "국보", "location": "경상북도 봉화군" }, "geometry": { "type": "Point", "coordinates": [ 128.736910778148115, 36.931283975641378 ] } },
{ "type": "Feature", "properties": { "id": "11_148", "name": "충주 고구려비", "era": "고구려시대", "category": "국보", "location": "충청북도 충주시" }, "geometry": { "type": "Point", "coordinates": [ 127.848500056714542, 37.028086836257771 ] } },
{ "type": "Feature", "properties": { "id": "11_149", "name": "경복궁 근정전", "era": "조선시대", "category": "국보", "location": "서울특별시 종로구" }, "geometry": { "type": "Point", "coordinates": [ 126.976974046763914, 37.578535182536463 ] } },
{ "type": "Feature", "properties": { "id": "11_150", "name": "경복궁 경회루", "era": "조선시대", "category": "국보", "location": "서울특별시 종로구" }, "geometry": { "type": "Point", "coordinates": [ 126.975987690841208, 37.579749904049841 ] } },
{ "type": "Feature", "properties": { "id": "11_151", "name": "창덕궁 인정전", "era": "조선시대", "category": "국보", "location": "서울특별시 종로구" }, "geometry": { "type": "Point", "coordinates": [ 126.991107981984285, 37.57938142102774 ] } },
{ "type": "Feature", "properties": { "id": "11_152", "name": "창경궁 명정전", "era": "조선시대", "category": "국보", "location": "서울특별시 종로구" }, "geometry": { "type": "Point", "coordinates": [ 126.994950232040665, 37.57875935504002 ] } },
{ "type": "Feature", "properties": { "id": "11_153", "name": "종묘 정전", "era": "조선시대", "category": "국보", "location": "서울특별시 종로구" }, "geometry": { "type": "Point", "coordinates": [ 126.993964339500366, 37.574938338763047 ] } },
{ "type": "Feature", "properties": { "id": "11_154", "name": "천상열차분야지도 각석", "era": "조선시대", "category": "국보", "location": "서울특별시 종로구" }, "geometry": { "type": "Point", "coordinates": [ 126.974851135691225, 37.576571076841191 ] } },
{ "type": "Feature", "properties": { "id": "11_155", "name": "산청 석남암사지 석조비로자나불좌상", "era": "통일신라시대", "category": "국보", "location": "경상남도 산청군" }, "geometry": { "type": "Point", "coordinates": [ 127.810030229352122, 35.3002724380571 ] } },
{ "type": "Feature", "properties": { "id": "11_156", "name": "경주 장항리 서 오층석탑", "era": "통일신라시대", "category": "국보", "location": "경상북도 경주시" }, "geometry": { "type": "Point", "coordinates": [ 129.372983381950718, 35.774873886990804 ] } },
{ "type": "Feature", "properties": { "id": "11_157", "name": "송시열 초상", "era": "조선시대", "category": "국보", "location": "서울특별시 용산구" }, "geometry": { "type": "Point", "coordinates": [ 126.9803502416529, 37.524041377251407 ] } },
{ "type": "Feature", "properties": { "id": "11_158", "name": "초조본 신찬일체경원품차록 권20", "era": "고려시대", "category": "국보", "location": "서울특별시 용산구" }, "geometry": { "type": "Point", "coordinates": [ 126.9803502416529, 37.524041377251407 ] } },
{ "type": "Feature", "properties": { "id": "11_159", "name": "초조본 대보적경 권59", "era": "고려시대", "category": "국보", "location": "서울특별시 용산구" }, "geometry": { "type": "Point", "coordinates": [ 126.9803502416529, 37.524041377251407 ] } },
{ "type": "Feature", "properties": { "id": "11_160", "name": "공주 의당 금동보살입상", "era": "백제시대", "category": "국보", "location": "충청남도 공주시" }, "geometry": { "type": "Point", "coordinates": [ 127.112372995153365, 36.465599699222629 ] } },
{ "type": "Feature", "properties": { "id": "11_161", "name": "청자 양각연화당초상감모란문 은테 발", "era": "고려시대", "category": "국보", "location": "서울특별시 용산구" }, "geometry": { "type": "Point", "coordinates": [ 126.9803502416529, 37.524041377251407 ] } },
{ "type": "Feature", "properties": { "id": "11_162", "name": "초조본 대방광불화엄경 주본 권1", "era": "고려시대", "category": "국보", "location": "경기도 용인시" }, "geometry": { "type": "Point", "coordinates": [ 127.108755608431224, 37.268329578541071 ] } },
{ "type": "Feature", "properties": { "id": "11_163", "name": "분청사기 상감운룡문 항아리", "era": "조선시대", "category": "국보", "location": "서울특별시 용산구" }, "geometry": { "type": "Point", "coordinates": [ 126.9803502416529, 37.524041377251407 ] } },
{ "type": "Feature", "properties": { "id": "11_164", "name": "분청사기 박지철채모란문 자라병", "era": "조선시대", "category": "국보", "location": "서울특별시 용산구" }, "geometry": { "type": "Point", "coordinates": [ 126.9803502416529, 37.524041377251407 ] } },
{ "type": "Feature", "properties": { "id": "11_165", "name": "포항 냉수리 신라비", "era": "신라시대", "category": "국보", "location": "경상북도 포항시" }, "geometry": { "type": "Point", "coordinates": [ 129.263064117132956, 36.129872803130034 ] } },
{ "type": "Feature", "properties": { "id": "11_166", "name": "초조본 현양성교론 권12", "era": "고려시대", "category": "국보", "location": "서울특별시 용산구" }, "geometry": { "type": "Point", "coordinates": [ 126.9803502416529, 37.524041377251407 ] } },
{ "type": "Feature", "properties": { "id": "11_167", "name": "초조본 유가사지론 권32", "era": "고려시대", "category": "국보", "location": "서울특별시 용산구" }, "geometry": { "type": "Point", "coordinates": [ 126.9803502416529, 37.524041377251407 ] } },
{ "type": "Feature", "properties": { "id": "11_168", "name": "초조본 유가사지론 권15", "era": "고려시대", "category": "국보", "location": "서울특별시 용산구" }, "geometry": { "type": "Point", "coordinates": [ 126.9803502416529, 37.524041377251407 ] } },
{ "type": "Feature", "properties": { "id": "11_169", "name": "도기 기마인물형 뿔잔", "era": "삼국시대", "category": "국보", "location": "경상북도 경주시" }, "geometry": { "type": "Point", "coordinates": [ 129.227912382125908, 35.829387426854673 ] } },
{ "type": "Feature", "properties": { "id": "11_170", "name": "성거산 천흥사명 동종", "era": "고려시대", "category": "국보", "location": "서울특별시 용산구" }, "geometry": { "type": "Point", "coordinates": [ 126.9803502416529, 37.524041377251407 ] } },
{ "type": "Feature", "properties": { "id": "11_171", "name": "영주 흑석사 목조아미타여래좌상 및 복장유물", "era": "조선시대", "category": "국보", "location": "대구광역시 수성구" }, "geometry": { "type": "Point", "coordinates": [ 128.637925230409166, 35.845859072139078 ] } },
{ "type": "Feature", "properties": { "id": "11_172", "name": "통감속편", "era": "조선시대", "category": "국보", "location": "경기도 성남시" }, "geometry": { "type": "Point", "coordinates": [ 127.052183461948687, 37.393029572955925 ] } },
{ "type": "Feature", "properties": { "id": "11_173", "name": "울주 대곡리 반구대 암각화", "era": "석기시대", "category": "국보", "location": "울산광역시 울주군" }, "geometry": { "type": "Point", "coordinates": [ 129.177853075392562, 35.603918162331865 ] } },
{ "type": "Feature", "properties": { "id": "11_174", "name": "백제 금동대향로", "era": "백제시대", "category": "국보", "location": "충청남도 부여군" }, "geometry": { "type": "Point", "coordinates": [ 126.918989357639447, 36.276362860428378 ] } },
{ "type": "Feature", "properties": { "id": "11_175", "name": "부여 능산리사지 석조사리감", "era": "", "category": "국보", "location": "충청남도 부여군" }, "geometry": { "type": "Point", "coordinates": [ 126.918989357639447, 36.276362860428378 ] } },
{ "type": "Feature", "properties": { "id": "11_176", "name": "익산 왕궁리 오층석탑", "era": "고려시대", "category": "국보", "location": "전북특별자치도 익산시" }, "geometry": { "type": "Point", "coordinates": [ 127.054583758320732, 35.973125299323712 ] } },
{ "type": "Feature", "properties": { "id": "11_177", "name": "양산 통도사 대웅전 및 금강계단", "era": "조선시대", "category": "국보", "location": "경상남도 양산시" }, "geometry": { "type": "Point", "coordinates": [ 129.063730447222298, 35.48817569702905 ] } },
{ "type": "Feature", "properties": { "id": "11_178", "name": "부여 규암리 금동관음보살입상", "era": "백제시대", "category": "국보", "location": "충청남도 부여군" }, "geometry": { "type": "Point", "coordinates": [ 126.918989357639447, 36.276362860428378 ] } },
{ "type": "Feature", "properties": { "id": "11_179", "name": "승정원일기", "era": "조선시대", "category": "국보", "location": "서울특별시 관악구" }, "geometry": { "type": "Point", "coordinates": [ 126.950453273550607, 37.462350668748684 ] } },
{ "type": "Feature", "properties": { "id": "11_180", "name": "여수 진남관", "era": "조선시대", "category": "국보", "location": "전라남도 여수시" }, "geometry": { "type": "Point", "coordinates": [ 127.736594309909009, 34.742001124514104 ] } },
{ "type": "Feature", "properties": { "id": "11_181", "name": "통영 세병관", "era": "조선시대", "category": "국보", "location": "경상남도 통영시" }, "geometry": { "type": "Point", "coordinates": [ 128.423094932234392, 34.847749916736404 ] } },
{ "type": "Feature", "properties": { "id": "11_182", "name": "삼국유사", "era": "조선시대", "category": "국보", "location": "서울특별시 관악구" }, "geometry": { "type": "Point", "coordinates": [ 126.950453273550607, 37.462350668748684 ] } },
{ "type": "Feature", "properties": { "id": "11_183", "name": "태안 동문리 마애삼존불입상", "era": "삼국시대", "category": "국보", "location": "충청남도 태안군" }, "geometry": { "type": "Point", "coordinates": [ 126.298989613504403, 36.767058257049591 ] } },
{ "type": "Feature", "properties": { "id": "11_184", "name": "해남 대흥사 북미륵암 마애여래좌상", "era": "고려시대", "category": "국보", "location": "전라남도 해남군" }, "geometry": { "type": "Point", "coordinates": [ 126.631164409410275, 34.474844737206617 ] } },
{ "type": "Feature", "properties": { "id": "11_185", "name": "백자 달항아리(2007-2)", "era": "조선시대", "category": "국보", "location": "서울특별시 종로구" }, "geometry": { "type": "Point", "coordinates": [ 126.974851135691225, 37.576571076841191 ] } },
{ "type": "Feature", "properties": { "id": "11_186", "name": "안동 봉정사 대웅전", "era": "조선시대", "category": "국보", "location": "경상북도 안동시" }, "geometry": { "type": "Point", "coordinates": [ 128.662675980697486, 36.653441745192275 ] } },
{ "type": "Feature", "properties": { "id": "11_187", "name": "경주 남산 칠불암 마애불상군", "era": "통일신라시대", "category": "국보", "location": "경상북도 경주시" }, "geometry": { "type": "Point", "coordinates": [ 129.235355892731633, 35.771431379021571 ] } },
{ "type": "Feature", "properties": { "id": "11_188", "name": "문경 봉암사 지증대사탑비", "era": "통일신라시대", "category": "국보", "location": "경상북도 문경시" }, "geometry": { "type": "Point", "coordinates": [ 128.005521268930266, 36.700611620584986 ] } },
{ "type": "Feature", "properties": { "id": "11_189", "name": "완주 화암사 극락전", "era": "조선시대", "category": "국보", "location": "전북특별자치도 완주군" }, "geometry": { "type": "Point", "coordinates": [ 127.287158566049243, 36.066417438973936 ] } },
{ "type": "Feature", "properties": { "id": "11_190", "name": "조선태조어진", "era": "조선시대", "category": "국보", "location": "전북특별자치도 전주시" }, "geometry": { "type": "Point", "coordinates": [ 127.089804075637531, 35.801246741478288 ] } },
{ "type": "Feature", "properties": { "id": "11_191", "name": "포항 중성리 신라비", "era": "신라시대", "category": "국보", "location": "경상북도 경주시" }, "geometry": { "type": "Point", "coordinates": [ 129.307948192671091, 35.783305631418848 ] } },
{ "type": "Feature", "properties": { "id": "11_192", "name": "동의보감(2015-1)", "era": "조선시대", "category": "국보", "location": "서울특별시 서초구" }, "geometry": { "type": "Point", "coordinates": [ 127.003037812140889, 37.497482832101362 ] } },
{ "type": "Feature", "properties": { "id": "11_193", "name": "동의보감(2015-2)", "era": "조선시대", "category": "국보", "location": "경기도 성남시" }, "geometry": { "type": "Point", "coordinates": [ 127.052183461948687, 37.393029572955925 ] } },
{ "type": "Feature", "properties": { "id": "11_194", "name": "동의보감(2015-3)", "era": "조선시대", "category": "국보", "location": "서울특별시 관악구" }, "geometry": { "type": "Point", "coordinates": [ 126.950453273550607, 37.462350668748684 ] } },
{ "type": "Feature", "properties": { "id": "11_195", "name": "논산 관촉사 석조미륵보살입상", "era": "고려시대", "category": "국보", "location": "충청남도 논산시" }, "geometry": { "type": "Point", "coordinates": [ 127.112734768118742, 36.188263869351317 ] } },
{ "type": "Feature", "properties": { "id": "11_196", "name": "예천 용문사 대장전과 윤장대", "era": "조선시대", "category": "국보", "location": "경상북도 예천군" }, "geometry": { "type": "Point", "coordinates": [ 128.369685778572574, 36.731498675254024 ] } },
{ "type": "Feature", "properties": { "id": "11_197", "name": "정선 정암사 수마노탑", "era": "고려시대", "category": "국보", "location": "강원특별자치도 정선군" }, "geometry": { "type": "Point", "coordinates": [ 128.893162091149122, 37.182291318555038 ] } },
{ "type": "Feature", "properties": { "id": "11_198", "name": "삼척 죽서루", "era": "조선시대", "category": "국보", "location": "강원특별자치도 삼척시" }, "geometry": { "type": "Point", "coordinates": [ 129.160545583942962, 37.440882912400014 ] } },
{ "type": "Feature", "properties": { "id": "11_199", "name": "밀양 영남루", "era": "조선시대", "category": "국보", "location": "경상남도 밀양시" }, "geometry": { "type": "Point", "coordinates": [ 128.755108189419474, 35.491531070261942 ] } },
{ "type": "Feature", "properties": { "id": "11_200", "name": "공주 마곡사 오층석탑", "era": "고려시대", "category": "국보", "location": "충청남도 공주시" }, "geometry": { "type": "Point", "coordinates": [ 127.012103255949143, 36.559044864568435 ] } },
{ "type": "Feature", "properties": { "id": "11_201", "name": "곡성 태안사 적인선사탑", "era": "통일신라시대", "category": "국보", "location": "전라남도 곡성군" }, "geometry": { "type": "Point", "coordinates": [ 127.388158688991155, 35.131943088313434 ] } },
{ "type": "Feature", "properties": { "id": "11_202", "name": "서산 보원사지 오층석탑", "era": "고려시대", "category": "국보", "location": "충청남도 서산시" }, "geometry": { "type": "Point", "coordinates": [ 126.601376116462561, 36.761534042326019 ] } },
{ "type": "Feature", "properties": { "id": "11_203", "name": "예천 개심사지 오층석탑", "era": "고려시대", "category": "국보", "location": "경상북도 예천군" }, "geometry": { "type": "Point", "coordinates": [ 128.454774422337607, 36.652004303582714 ] } },
{ "type": "Feature", "properties": { "id": "12_1", "name": "서울 흥인지문", "era": "조선시대", "category": "보물", "location": "서울특별시 종로구" }, "geometry": { "type": "Point", "coordinates": [ 127.009597798202108, 37.571173997220555 ] } },
{ "type": "Feature", "properties": { "id": "12_2", "name": "옛 보신각 동종", "era": "조선시대", "category": "보물", "location": "서울특별시 용산구" }, "geometry": { "type": "Point", "coordinates": [ 126.9803502416529, 37.524041377251407 ] } },
{ "type": "Feature", "properties": { "id": "12_3", "name": "서울 원각사지 대원각사비", "era": "조선시대", "category": "보물", "location": "서울특별시 종로구" }, "geometry": { "type": "Point", "coordinates": [ 126.988673594887956, 37.571081501325132 ] } },
{ "type": "Feature", "properties": { "id": "12_4", "name": "안양 중초사지 당간지주", "era": "통일신라시대", "category": "보물", "location": "경기도 안양시" }, "geometry": { "type": "Point", "coordinates": [ 126.917733864917665, 37.417902200859423 ] } },
{ "type": "Feature", "properties": { "id": "12_5", "name": "여주 고달사지 원종대사탑비", "era": "고려시대", "category": "보물", "location": "경기도 여주시" }, "geometry": { "type": "Point", "coordinates": [ 127.653924015666846, 37.392789915752481 ] } },
{ "type": "Feature", "properties": { "id": "12_6", "name": "여주 고달사지 원종대사탑", "era": "고려시대", "category": "보물", "location": "경기도 여주시" }, "geometry": { "type": "Point", "coordinates": [ 127.653084637117033, 37.39432990174717 ] } },
{ "type": "Feature", "properties": { "id": "12_7", "name": "여주 고달사지 석조대좌", "era": "고려시대", "category": "보물", "location": "경기도 여주시" }, "geometry": { "type": "Point", "coordinates": [ 127.654347096716663, 37.392889302611337 ] } },
{ "type": "Feature", "properties": { "id": "12_8", "name": "용인 서봉사지 현오국사탑비", "era": "고려시대", "category": "보물", "location": "경기도 용인시" }, "geometry": { "type": "Point", "coordinates": [ 127.038757700846688, 37.337785556779124 ] } },
{ "type": "Feature", "properties": { "id": "12_9", "name": "강화 장정리 오층석탑", "era": "고려시대", "category": "보물", "location": "인천광역시 강화군" }, "geometry": { "type": "Point", "coordinates": [ 126.420042654691599, 37.780020984436646 ] } },
{ "type": "Feature", "properties": { "id": "12_10", "name": "하남 동사지 오층석탑", "era": "고려시대", "category": "보물", "location": "경기도 하남시" }, "geometry": { "type": "Point", "coordinates": [ 127.18587780864874, 37.516860528719533 ] } },
{ "type": "Feature", "properties": { "id": "12_11", "name": "하남 동사지 삼층석탑", "era": "고려시대", "category": "보물", "location": "경기도 하남시" }, "geometry": { "type": "Point", "coordinates": [ 127.185927149544767, 37.516944375555653 ] } },
{ "type": "Feature", "properties": { "id": "12_12", "name": "수원 창성사지 진각국사탑비", "era": "고려시대", "category": "보물", "location": "경기도 수원시" }, "geometry": { "type": "Point", "coordinates": [ 127.018724548734596, 37.286847738092909 ] } },
{ "type": "Feature", "properties": { "id": "12_13", "name": "보은 법주사 사천왕 석등", "era": "통일신라시대", "category": "보물", "location": "충청북도 보은군" }, "geometry": { "type": "Point", "coordinates": [ 127.833409539224604, 36.542539308684646 ] } },
{ "type": "Feature", "properties": { "id": "12_14", "name": "충주 억정사지 대지국사탑비", "era": "조선시대", "category": "보물", "location": "충청북도 충주시" }, "geometry": { "type": "Point", "coordinates": [ 127.927344745714421, 37.103573501103263 ] } },
{ "type": "Feature", "properties": { "id": "12_15", "name": "충주 정토사지 법경대사탑비", "era": "고려시대", "category": "보물", "location": "충청북도 충주시" }, "geometry": { "type": "Point", "coordinates": [ 128.047032427309063, 37.030621842458508 ] } },
{ "type": "Feature", "properties": { "id": "12_16", "name": "청양 서정리 구층석탑", "era": "고려시대", "category": "보물", "location": "충청남도 청양군" }, "geometry": { "type": "Point", "coordinates": [ 126.953050954186693, 36.410701508052583 ] } },
{ "type": "Feature", "properties": { "id": "12_17", "name": "보령 성주사지 오층석탑", "era": "통일신라시대", "category": "보물", "location": "충청남도 보령시" }, "geometry": { "type": "Point", "coordinates": [ 126.656307458848019, 36.34439917589944 ] } },
{ "type": "Feature", "properties": { "id": "12_18", "name": "보령 성주사지 중앙 삼층석탑", "era": "통일신라시대", "category": "보물", "location": "충청남도 보령시" }, "geometry": { "type": "Point", "coordinates": [ 126.656047128646321, 36.34465973413193 ] } },
{ "type": "Feature", "properties": { "id": "12_19", "name": "부여 당 유인원 기공비", "era": "신라시대", "category": "보물", "location": "충청남도 부여군" }, "geometry": { "type": "Point", "coordinates": [ 126.917669871455104, 36.27635734224539 ] } },
{ "type": "Feature", "properties": { "id": "12_20", "name": "김제 금산사 노주", "era": "고려시대", "category": "보물", "location": "전북특별자치도 김제시" }, "geometry": { "type": "Point", "coordinates": [ 127.053203156548918, 35.7234649753238 ] } },
{ "type": "Feature", "properties": { "id": "12_21", "name": "김제 금산사 석련대", "era": "통일신라시대", "category": "보물", "location": "전북특별자치도 김제시" }, "geometry": { "type": "Point", "coordinates": [ 127.053570922097762, 35.723343895356912 ] } },
{ "type": "Feature", "properties": { "id": "12_22", "name": "김제 금산사 혜덕왕사탑비", "era": "고려시대", "category": "보물", "location": "전북특별자치도 김제시" }, "geometry": { "type": "Point", "coordinates": [ 127.056338502153125, 35.72416070680498 ] } },
{ "type": "Feature", "properties": { "id": "12_23", "name": "김제 금산사 오층석탑", "era": "고려시대", "category": "보물", "location": "전북특별자치도 김제시" }, "geometry": { "type": "Point", "coordinates": [ 127.053879350030584, 35.723443952523425 ] } },
{ "type": "Feature", "properties": { "id": "12_24", "name": "김제 금산사 금강계단", "era": "고려시대", "category": "보물", "location": "전북특별자치도 김제시" }, "geometry": { "type": "Point", "coordinates": [ 127.053931916885531, 35.723530341189317 ] } },
{ "type": "Feature", "properties": { "id": "12_25", "name": "김제 금산사 육각 다층석탑", "era": "고려시대", "category": "보물", "location": "전북특별자치도 김제시" }, "geometry": { "type": "Point", "coordinates": [ 127.053487694108938, 35.723273540736493 ] } },
{ "type": "Feature", "properties": { "id": "12_26", "name": "김제 금산사 당간지주", "era": "통일신라시대", "category": "보물", "location": "전북특별자치도 김제시" }, "geometry": { "type": "Point", "coordinates": [ 127.053070114133433, 35.722125202359997 ] } },
{ "type": "Feature", "properties": { "id": "12_27", "name": "김제 금산사 심원암 삼층석탑", "era": "고려시대", "category": "보물", "location": "전북특별자치도 김제시" }, "geometry": { "type": "Point", "coordinates": [ 127.068196358325991, 35.72935124894363 ] } },
{ "type": "Feature", "properties": { "id": "12_28", "name": "남원 만복사지 오층석탑", "era": "고려시대", "category": "보물", "location": "전북특별자치도 남원시" }, "geometry": { "type": "Point", "coordinates": [ 127.367819013533094, 35.407019031026046 ] } },
{ "type": "Feature", "properties": { "id": "12_29", "name": "남원 만복사지 석조대좌", "era": "고려시대", "category": "보물", "location": "전북특별자치도 남원시" }, "geometry": { "type": "Point", "coordinates": [ 127.367318046424415, 35.406681307313924 ] } },
{ "type": "Feature", "properties": { "id": "12_30", "name": "남원 만복사지 당간지주", "era": "고려시대", "category": "보물", "location": "전북특별자치도 남원시" }, "geometry": { "type": "Point", "coordinates": [ 127.367711784941662, 35.40631405661577 ] } },
{ "type": "Feature", "properties": { "id": "12_31", "name": "남원 실상사 수철화상탑", "era": "통일신라시대", "category": "보물", "location": "전북특별자치도 남원시" }, "geometry": { "type": "Point", "coordinates": [ 127.634417672213402, 35.4158643281921 ] } },
{ "type": "Feature", "properties": { "id": "12_32", "name": "남원 실상사 수철화상탑비", "era": "통일신라시대", "category": "보물", "location": "전북특별자치도 남원시" }, "geometry": { "type": "Point", "coordinates": [ 127.634416597703435, 35.416090037987715 ] } },
{ "type": "Feature", "properties": { "id": "12_33", "name": "남원 실상사 석등", "era": "통일신라시대", "category": "보물", "location": "전북특별자치도 남원시" }, "geometry": { "type": "Point", "coordinates": [ 127.635158477482875, 35.416810449373784 ] } },
{ "type": "Feature", "properties": { "id": "12_34", "name": "남원 실상사 승탑", "era": "고려시대", "category": "보물", "location": "전북특별자치도 남원시" }, "geometry": { "type": "Point", "coordinates": [ 127.633485526979783, 35.417033074312123 ] } },
{ "type": "Feature", "properties": { "id": "12_36", "name": "남원 실상사 증각대사탑", "era": "통일신라시대", "category": "보물", "location": "전북특별자치도 남원시" }, "geometry": { "type": "Point", "coordinates": [ 127.634339512245305, 35.415627342877059 ] } },
{ "type": "Feature", "properties": { "id": "12_37", "name": "남원 실상사 증각대사탑비", "era": "통일신라시대", "category": "보물", "location": "전북특별자치도 남원시" }, "geometry": { "type": "Point", "coordinates": [ 127.63463202290167, 35.415792477364398 ] } },
{ "type": "Feature", "properties": { "id": "12_38", "name": "남원 실상사 백장암 석등", "era": "통일신라시대", "category": "보물", "location": "전북특별자치도 남원시" }, "geometry": { "type": "Point", "coordinates": [ 127.619955087722801, 35.44256063785609 ] } },
{ "type": "Feature", "properties": { "id": "12_39", "name": "남원 용담사지 석조여래입상", "era": "고려시대", "category": "보물", "location": "전북특별자치도 남원시" }, "geometry": { "type": "Point", "coordinates": [ 127.41262663394906, 35.410389899047473 ] } },
{ "type": "Feature", "properties": { "id": "12_40", "name": "남원 만복사지 석조여래입상", "era": "고려시대", "category": "보물", "location": "전북특별자치도 남원시" }, "geometry": { "type": "Point", "coordinates": [ 127.36777074422794, 35.407182287913216 ] } },
{ "type": "Feature", "properties": { "id": "12_41", "name": "익산 연동리 석조여래좌상", "era": "백제시대", "category": "보물", "location": "전북특별자치도 익산시" }, "geometry": { "type": "Point", "coordinates": [ 127.007611234146367, 36.029881501412831 ] } },
{ "type": "Feature", "properties": { "id": "12_43", "name": "보령 성주사지 서 삼층석탑", "era": "통일신라시대", "category": "보물", "location": "충청남도 보령시" }, "geometry": { "type": "Point", "coordinates": [ 126.655949965421186, 36.344590094112554 ] } },
{ "type": "Feature", "properties": { "id": "12_44", "name": "나주 동점문 밖 석당간", "era": "고려시대", "category": "보물", "location": "전라남도 나주시" }, "geometry": { "type": "Point", "coordinates": [ 126.722754342786985, 35.036927959001858 ] } },
{ "type": "Feature", "properties": { "id": "12_45", "name": "나주 북망문 밖 삼층석탑", "era": "고려시대", "category": "보물", "location": "전라남도 나주시" }, "geometry": { "type": "Point", "coordinates": [ 126.712199795936399, 35.039466672289599 ] } },
{ "type": "Feature", "properties": { "id": "12_46", "name": "문경 내화리 삼층석탑", "era": "통일신라시대", "category": "보물", "location": "경상북도 문경시" }, "geometry": { "type": "Point", "coordinates": [ 128.294881145254379, 36.692637664806838 ] } },
{ "type": "Feature", "properties": { "id": "12_48", "name": "고령 지산리 당간지주", "era": "통일신라시대", "category": "보물", "location": "경상북도 고령군" }, "geometry": { "type": "Point", "coordinates": [ 128.265526602143524, 35.727213672421044 ] } },
{ "type": "Feature", "properties": { "id": "12_49", "name": "안동 운흥동 오층전탑", "era": "통일신라시대", "category": "보물", "location": "경상북도 안동시" }, "geometry": { "type": "Point", "coordinates": [ 128.731421653232104, 36.562571708383537 ] } },
{ "type": "Feature", "properties": { "id": "12_50", "name": "안동 조탑리 오층전탑", "era": "통일신라시대", "category": "보물", "location": "경상북도 안동시" }, "geometry": { "type": "Point", "coordinates": [ 128.63539973533355, 36.482043968783699 ] } },
{ "type": "Feature", "properties": { "id": "12_51", "name": "안동 안기동 석조여래좌상", "era": "통일신라시대", "category": "보물", "location": "경상북도 안동시" }, "geometry": { "type": "Point", "coordinates": [ 128.717787820705894, 36.572279654138555 ] } },
{ "type": "Feature", "properties": { "id": "12_52", "name": "영주 숙수사지 당간지주", "era": "통일신라시대", "category": "보물", "location": "경상북도 영주시" }, "geometry": { "type": "Point", "coordinates": [ 128.57960636769667, 36.924235453938337 ] } },
{ "type": "Feature", "properties": { "id": "12_53", "name": "영주 영주동 석조여래입상", "era": "통일신라시대", "category": "보물", "location": "경상북도 영주시" }, "geometry": { "type": "Point", "coordinates": [ 128.617140483893422, 36.81915092414615 ] } },
{ "type": "Feature", "properties": { "id": "12_54", "name": "경주 불국사 사리탑", "era": "고려시대", "category": "보물", "location": "경상북도 경주시" }, "geometry": { "type": "Point", "coordinates": [ 129.331764006898169, 35.790644041881627 ] } },
{ "type": "Feature", "properties": { "id": "12_55", "name": "경주 서악동 마애여래삼존입상", "era": "통일신라시대", "category": "보물", "location": "경상북도 경주시" }, "geometry": { "type": "Point", "coordinates": [ 129.175689502264646, 35.833342807407554 ] } },
{ "type": "Feature", "properties": { "id": "12_56", "name": "경주 배동 석조여래삼존입상", "era": "삼국시대", "category": "보물", "location": "경상북도 경주시" }, "geometry": { "type": "Point", "coordinates": [ 129.21124840820778, 35.801772002352379 ] } },
{ "type": "Feature", "properties": { "id": "12_57", "name": "경주 보문사지 석조", "era": "통일신라시대", "category": "보물", "location": "경상북도 경주시" }, "geometry": { "type": "Point", "coordinates": [ 129.254220380870009, 35.826186860101693 ] } },
{ "type": "Feature", "properties": { "id": "12_58", "name": "경주 서악동 삼층석탑", "era": "통일신라시대", "category": "보물", "location": "경상북도 경주시" }, "geometry": { "type": "Point", "coordinates": [ 129.18483793146288, 35.827990120309714 ] } },
{ "type": "Feature", "properties": { "id": "12_59", "name": "경주 석빙고", "era": "조선시대", "category": "보물", "location": "경상북도 경주시" }, "geometry": { "type": "Point", "coordinates": [ 129.223949435913596, 35.833169426255864 ] } },
{ "type": "Feature", "properties": { "id": "12_60", "name": "경주 효현동 삼층석탑", "era": "통일신라시대", "category": "보물", "location": "경상북도 경주시" }, "geometry": { "type": "Point", "coordinates": [ 129.169701928232342, 35.823297300452225 ] } },
{ "type": "Feature", "properties": { "id": "12_61", "name": "경주 황남동 효자 손시양 정려비", "era": "고려시대", "category": "보물", "location": "경상북도 경주시" }, "geometry": { "type": "Point", "coordinates": [ 129.210984341772217, 35.836299362666161 ] } },
{ "type": "Feature", "properties": { "id": "12_62", "name": "경주 망덕사지 당간지주", "era": "통일신라시대", "category": "보물", "location": "경상북도 경주시" }, "geometry": { "type": "Point", "coordinates": [ 129.243165881986641, 35.816437899436643 ] } },
{ "type": "Feature", "properties": { "id": "12_63", "name": "경주 서악동 귀부", "era": "통일신라시대", "category": "보물", "location": "경상북도 경주시" }, "geometry": { "type": "Point", "coordinates": [ 129.189943412976589, 35.825021655663051 ] } },
{ "type": "Feature", "properties": { "id": "12_64", "name": "함안 대산리 석조삼존상", "era": "고려시대", "category": "보물", "location": "경상남도 함안군" }, "geometry": { "type": "Point", "coordinates": [ 128.428651953918489, 35.255222124878664 ] } },
{ "type": "Feature", "properties": { "id": "12_65", "name": "산청 단속사지 동 삼층석탑", "era": "통일신라시대", "category": "보물", "location": "경상남도 산청군" }, "geometry": { "type": "Point", "coordinates": [ 127.899870230890542, 35.321238230845211 ] } },
{ "type": "Feature", "properties": { "id": "12_66", "name": "산청 단속사지 서 삼층석탑", "era": "통일신라시대", "category": "보물", "location": "경상남도 산청군" }, "geometry": { "type": "Point", "coordinates": [ 127.899617986968295, 35.321238123895526 ] } },
{ "type": "Feature", "properties": { "id": "12_67", "name": "양산 통도사 국장생 석표", "era": "고려시대", "category": "보물", "location": "경상남도 양산시" }, "geometry": { "type": "Point", "coordinates": [ 129.086520867671112, 35.473938612231777 ] } },
{ "type": "Feature", "properties": { "id": "12_68", "name": "창녕 송현동 마애여래좌상", "era": "통일신라시대", "category": "보물", "location": "경상남도 창녕군" }, "geometry": { "type": "Point", "coordinates": [ 128.50843411373566, 35.541110906895348 ] } },
{ "type": "Feature", "properties": { "id": "12_69", "name": "춘천 근화동 당간지주", "era": "고려시대", "category": "보물", "location": "강원특별자치도 춘천시" }, "geometry": { "type": "Point", "coordinates": [ 127.721690059759808, 37.892074994486357 ] } },
{ "type": "Feature", "properties": { "id": "12_70", "name": "춘천 칠층석탑", "era": "고려시대", "category": "보물", "location": "강원특별자치도 춘천시" }, "geometry": { "type": "Point", "coordinates": [ 127.72459860837246, 37.885274516226573 ] } },
{ "type": "Feature", "properties": { "id": "12_71", "name": "원주 거돈사지 원공국사탑비", "era": "고려시대", "category": "보물", "location": "강원특별자치도 원주시" }, "geometry": { "type": "Point", "coordinates": [ 127.793308364348078, 37.193410012117191 ] } },
{ "type": "Feature", "properties": { "id": "12_72", "name": "홍천 희망리 삼층석탑", "era": "고려시대", "category": "보물", "location": "강원특별자치도 홍천군" }, "geometry": { "type": "Point", "coordinates": [ 127.888848027154239, 37.694276030992832 ] } },
{ "type": "Feature", "properties": { "id": "12_73", "name": "홍천 희망리 당간지주", "era": "고려시대", "category": "보물", "location": "강원특별자치도 홍천군" }, "geometry": { "type": "Point", "coordinates": [ 127.883184292793857, 37.687642318249097 ] } },
{ "type": "Feature", "properties": { "id": "12_74", "name": "강릉 한송사지 석조보살좌상", "era": "고려시대", "category": "보물", "location": "강원특별자치도 강릉시" }, "geometry": { "type": "Point", "coordinates": [ 128.876652382846373, 37.778278478592263 ] } },
{ "type": "Feature", "properties": { "id": "12_75", "name": "강릉 대창리 당간지주", "era": "통일신라시대", "category": "보물", "location": "강원특별자치도 강릉시" }, "geometry": { "type": "Point", "coordinates": [ 128.901234184478881, 37.760895222967868 ] } },
{ "type": "Feature", "properties": { "id": "12_76", "name": "강릉 수문리 당간지주", "era": "통일신라시대", "category": "보물", "location": "강원특별자치도 강릉시" }, "geometry": { "type": "Point", "coordinates": [ 128.903756111662886, 37.756718733381362 ] } },
{ "type": "Feature", "properties": { "id": "12_77", "name": "강릉 신복사지 석조보살좌상", "era": "고려시대", "category": "보물", "location": "강원특별자치도 강릉시" }, "geometry": { "type": "Point", "coordinates": [ 128.885561008554276, 37.742787900835786 ] } },
{ "type": "Feature", "properties": { "id": "12_78", "name": "강릉 굴산사지 승탑", "era": "고려시대", "category": "보물", "location": "강원특별자치도 강릉시" }, "geometry": { "type": "Point", "coordinates": [ 128.887121307857569, 37.707728777959574 ] } },
{ "type": "Feature", "properties": { "id": "12_79", "name": "강릉 굴산사지 당간지주", "era": "통일신라시대", "category": "보물", "location": "강원특별자치도 강릉시" }, "geometry": { "type": "Point", "coordinates": [ 128.891835512045958, 37.707301831005118 ] } },
{ "type": "Feature", "properties": { "id": "12_80", "name": "강릉 신복사지 삼층석탑", "era": "고려시대", "category": "보물", "location": "강원특별자치도 강릉시" }, "geometry": { "type": "Point", "coordinates": [ 128.885600491088979, 37.742772153688286 ] } },
{ "type": "Feature", "properties": { "id": "12_81", "name": "영암 도갑사 석조여래좌상", "era": "고려시대", "category": "보물", "location": "전라남도 영암군" }, "geometry": { "type": "Point", "coordinates": [ 126.663802853952191, 34.753987995290537 ] } },
{ "type": "Feature", "properties": { "id": "12_82", "name": "여주 창리 삼층석탑", "era": "고려시대", "category": "보물", "location": "경기도 여주시" }, "geometry": { "type": "Point", "coordinates": [ 127.648110970260021, 37.294254417302987 ] } },
{ "type": "Feature", "properties": { "id": "12_83", "name": "여주 하리 삼층석탑", "era": "고려시대", "category": "보물", "location": "경기도 여주시" }, "geometry": { "type": "Point", "coordinates": [ 127.648151035854738, 37.294200121569524 ] } },
{ "type": "Feature", "properties": { "id": "12_84", "name": "파주 용미리 마애이불입상", "era": "고려시대", "category": "보물", "location": "경기도 파주시" }, "geometry": { "type": "Point", "coordinates": [ 126.864564248956398, 37.754171420458555 ] } },
{ "type": "Feature", "properties": { "id": "12_85", "name": "제천 사자빈신사지 사사자 구층석탑", "era": "고려시대", "category": "보물", "location": "충청북도 제천시" }, "geometry": { "type": "Point", "coordinates": [ 128.083290548987549, 36.857297708446339 ] } },
{ "type": "Feature", "properties": { "id": "12_86", "name": "충주 미륵리 오층석탑", "era": "고려시대", "category": "보물", "location": "충청북도 충주시" }, "geometry": { "type": "Point", "coordinates": [ 128.095123396672506, 36.821990049901004 ] } },
{ "type": "Feature", "properties": { "id": "12_87", "name": "충주 미륵리 석조여래입상", "era": "고려시대", "category": "보물", "location": "충청북도 충주시" }, "geometry": { "type": "Point", "coordinates": [ 128.095130878241775, 36.821576015721035 ] } },
{ "type": "Feature", "properties": { "id": "12_88", "name": "괴산 원풍리 마애이불병좌상", "era": "고려시대", "category": "보물", "location": "충청북도 괴산군" }, "geometry": { "type": "Point", "coordinates": [ 128.023198130294617, 36.791831675196178 ] } },
{ "type": "Feature", "properties": { "id": "12_89", "name": "천안 천흥사지 당간지주", "era": "고려시대", "category": "보물", "location": "충청남도 천안시" }, "geometry": { "type": "Point", "coordinates": [ 127.213646280601623, 36.872206322544841 ] } },
{ "type": "Feature", "properties": { "id": "12_90", "name": "당진 안국사지 석조여래삼존입상", "era": "고려시대", "category": "보물", "location": "충청남도 당진시" }, "geometry": { "type": "Point", "coordinates": [ 126.557469801659707, 36.832031886958546 ] } },
{ "type": "Feature", "properties": { "id": "12_91", "name": "당진 안국사지 석탑", "era": "고려시대", "category": "보물", "location": "충청남도 당진시" }, "geometry": { "type": "Point", "coordinates": [ 126.557412808647896, 36.831908529411834 ] } },
{ "type": "Feature", "properties": { "id": "12_92", "name": "서산 보원사지 석조", "era": "통일신라시대", "category": "보물", "location": "충청남도 서산시" }, "geometry": { "type": "Point", "coordinates": [ 126.602357866672705, 36.762298566973051 ] } },
{ "type": "Feature", "properties": { "id": "12_93", "name": "서산 보원사지 당간지주", "era": "통일신라시대", "category": "보물", "location": "충청남도 서산시" }, "geometry": { "type": "Point", "coordinates": [ 126.602509777911877, 36.761672974060886 ] } },
{ "type": "Feature", "properties": { "id": "12_94", "name": "서산 보원사지 법인국사탑", "era": "고려시대", "category": "보물", "location": "충청남도 서산시" }, "geometry": { "type": "Point", "coordinates": [ 126.600779110311521, 36.761256301537138 ] } },
{ "type": "Feature", "properties": { "id": "12_95", "name": "서산 보원사지 법인국사탑비", "era": "고려시대", "category": "보물", "location": "충청남도 서산시" }, "geometry": { "type": "Point", "coordinates": [ 126.60082863987725, 36.761172670109893 ] } },
{ "type": "Feature", "properties": { "id": "12_96", "name": "부여 보광사지 대보광선사비", "era": "고려시대", "category": "보물", "location": "충청남도 부여군" }, "geometry": { "type": "Point", "coordinates": [ 126.918096651704076, 36.275682517611138 ] } },
{ "type": "Feature", "properties": { "id": "12_97", "name": "부여 정림사지 석조여래좌상", "era": "고려시대", "category": "보물", "location": "충청남도 부여군" }, "geometry": { "type": "Point", "coordinates": [ 126.913343000886513, 36.279820363290554 ] } },
{ "type": "Feature", "properties": { "id": "12_98", "name": "(전)광주 성거사지 오층석탑", "era": "고려시대", "category": "보물", "location": "광주광역시 남구" }, "geometry": { "type": "Point", "coordinates": [ 126.907904134883765, 35.147901116391864 ] } },
{ "type": "Feature", "properties": { "id": "12_99", "name": "광주 지산동 오층석탑", "era": "통일신라시대", "category": "보물", "location": "광주광역시 동구" }, "geometry": { "type": "Point", "coordinates": [ 126.93310836396509, 35.148902632959398 ] } },
{ "type": "Feature", "properties": { "id": "12_100", "name": "담양 개선사지 석등", "era": "통일신라시대", "category": "보물", "location": "전라남도 담양군" }, "geometry": { "type": "Point", "coordinates": [ 126.982616563909374, 35.185495782708713 ] } },
{ "type": "Feature", "properties": { "id": "12_101", "name": "광양 중흥산성 삼층석탑", "era": "통일신라시대", "category": "보물", "location": "전라남도 광양시" }, "geometry": { "type": "Point", "coordinates": [ 127.60734306035512, 35.024471365544997 ] } },
{ "type": "Feature", "properties": { "id": "12_102", "name": "청도 봉기리 삼층석탑", "era": "통일신라시대", "category": "보물", "location": "경상북도 청도군" }, "geometry": { "type": "Point", "coordinates": [ 128.614777851043584, 35.643153085927949 ] } },
{ "type": "Feature", "properties": { "id": "12_103", "name": "안동 평화동 삼층석탑", "era": "통일신라시대", "category": "보물", "location": "경상북도 안동시" }, "geometry": { "type": "Point", "coordinates": [ 128.716731359660884, 36.5678865143907 ] } },
{ "type": "Feature", "properties": { "id": "12_104", "name": "안동 이천동 마애여래입상", "era": "고려시대", "category": "보물", "location": "경상북도 안동시" }, "geometry": { "type": "Point", "coordinates": [ 128.705249317094712, 36.606555410161661 ] } },
{ "type": "Feature", "properties": { "id": "12_105", "name": "영주 석교리 석조여래입상", "era": "통일신라시대", "category": "보물", "location": "경상북도 영주시" }, "geometry": { "type": "Point", "coordinates": [ 128.581945029597733, 36.911877403906026 ] } },
{ "type": "Feature", "properties": { "id": "12_106", "name": "상주 화달리 삼층석탑", "era": "통일신라시대", "category": "보물", "location": "경상북도 상주시" }, "geometry": { "type": "Point", "coordinates": [ 128.223209220519351, 36.44479184415691 ] } },
{ "type": "Feature", "properties": { "id": "12_107", "name": "상주 증촌리 석조여래입상", "era": "통일신라시대", "category": "보물", "location": "경상북도 상주시" }, "geometry": { "type": "Point", "coordinates": [ 128.171560516154045, 36.568139127394765 ] } },
{ "type": "Feature", "properties": { "id": "12_108", "name": "상주 복용동 석조여래좌상", "era": "고려시대", "category": "보물", "location": "경상북도 상주시" }, "geometry": { "type": "Point", "coordinates": [ 128.162071986814851, 36.416923366823802 ] } },
{ "type": "Feature", "properties": { "id": "12_109", "name": "상주 증촌리 석조여래좌상", "era": "통일신라시대", "category": "보물", "location": "경상북도 상주시" }, "geometry": { "type": "Point", "coordinates": [ 128.171565432017786, 36.568152595445362 ] } },
{ "type": "Feature", "properties": { "id": "12_110", "name": "경주 굴불사지 석조사면불상", "era": "통일신라시대", "category": "보물", "location": "경상북도 경주시" }, "geometry": { "type": "Point", "coordinates": [ 129.230059154572331, 35.857782312210297 ] } },
{ "type": "Feature", "properties": { "id": "12_111", "name": "경주 율동 마애여래삼존입상", "era": "통일신라시대", "category": "보물", "location": "경상북도 경주시" }, "geometry": { "type": "Point", "coordinates": [ 129.174526608073705, 35.804739591404719 ] } },
{ "type": "Feature", "properties": { "id": "12_112", "name": "경주 보문사지 당간지주", "era": "통일신라시대", "category": "보물", "location": "경상북도 경주시" }, "geometry": { "type": "Point", "coordinates": [ 129.252746543234935, 35.825174299087294 ] } },
{ "type": "Feature", "properties": { "id": "12_114", "name": "경주 무장사지 아미타불 조상 사적비", "era": "통일신라시대", "category": "보물", "location": "경상북도 경주시" }, "geometry": { "type": "Point", "coordinates": [ 129.351126802632194, 35.880961481917304 ] } },
{ "type": "Feature", "properties": { "id": "12_115", "name": "경주 무장사지 삼층석탑", "era": "통일신라시대", "category": "보물", "location": "경상북도 경주시" }, "geometry": { "type": "Point", "coordinates": [ 129.350206621369438, 35.88134166970039 ] } },
{ "type": "Feature", "properties": { "id": "12_116", "name": "경주 삼랑사지 당간지주", "era": "통일신라시대", "category": "보물", "location": "경상북도 경주시" }, "geometry": { "type": "Point", "coordinates": [ 129.20194681085917, 35.84572821681148 ] } },
{ "type": "Feature", "properties": { "id": "12_117", "name": "합천 반야사지 원경왕사비", "era": "고려시대", "category": "보물", "location": "경상남도 합천군" }, "geometry": { "type": "Point", "coordinates": [ 128.096502633977167, 35.799346612246325 ] } },
{ "type": "Feature", "properties": { "id": "12_118", "name": "합천 월광사지 동·서 삼층석탑", "era": "통일신라시대", "category": "보물", "location": "경상남도 합천군" }, "geometry": { "type": "Point", "coordinates": [ 128.152768606894568, 35.734322934945894 ] } },
{ "type": "Feature", "properties": { "id": "12_119", "name": "구례 화엄사 동 오층석탑", "era": "통일신라시대", "category": "보물", "location": "전라남도 구례군" }, "geometry": { "type": "Point", "coordinates": [ 127.497868851923499, 35.256991637174835 ] } },
{ "type": "Feature", "properties": { "id": "12_120", "name": "구례 화엄사 서 오층석탑", "era": "통일신라시대", "category": "보물", "location": "전라남도 구례군" }, "geometry": { "type": "Point", "coordinates": [ 127.497604077578941, 35.257073301823041 ] } },
{ "type": "Feature", "properties": { "id": "12_121", "name": "대구 산격동 연화 운룡장식 승탑", "era": "고려시대", "category": "보물", "location": "대구광역시 북구" }, "geometry": { "type": "Point", "coordinates": [ 128.613754539291307, 35.888767076705498 ] } },
{ "type": "Feature", "properties": { "id": "12_122", "name": "경주 남산 미륵곡 석조여래좌상", "era": "통일신라시대", "category": "보물", "location": "경상북도 경주시" }, "geometry": { "type": "Point", "coordinates": [ 129.235657664903073, 35.811528213408977 ] } },
{ "type": "Feature", "properties": { "id": "12_123", "name": "문경 봉암사 지증대사탑", "era": "통일신라시대", "category": "보물", "location": "경상북도 문경시" }, "geometry": { "type": "Point", "coordinates": [ 128.005604997564802, 36.700609912383968 ] } },
{ "type": "Feature", "properties": { "id": "12_124", "name": "서울 문묘 및 성균관<대성전·동무·서무·삼문·명륜당>", "era": "조선시대", "category": "보물", "location": "서울특별시 종로구" }, "geometry": { "type": "Point", "coordinates": [ 126.99607706293709, 37.58521071847521 ] } },
{ "type": "Feature", "properties": { "id": "12_125", "name": "서울 동관왕묘", "era": "조선시대", "category": "보물", "location": "서울특별시 종로구" }, "geometry": { "type": "Point", "coordinates": [ 127.018224155830964, 37.57313483894211 ] } },
{ "type": "Feature", "properties": { "id": "12_126", "name": "서산 개심사 대웅전", "era": "조선시대", "category": "보물", "location": "충청남도 서산시" }, "geometry": { "type": "Point", "coordinates": [ 126.590447199465771, 36.74703380578525 ] } },
{ "type": "Feature", "properties": { "id": "12_127", "name": "창녕 관룡사 약사전", "era": "조선시대", "category": "보물", "location": "경상남도 창녕군" }, "geometry": { "type": "Point", "coordinates": [ 128.553234630268292, 35.531787624627881 ] } },
{ "type": "Feature", "properties": { "id": "12_128", "name": "공주 중동 석조", "era": "백제시대", "category": "보물", "location": "충청남도 공주시" }, "geometry": { "type": "Point", "coordinates": [ 127.111822098487465, 36.466033026322229 ] } },
{ "type": "Feature", "properties": { "id": "12_129", "name": "공주 반죽동 석조", "era": "백제시대", "category": "보물", "location": "충청남도 공주시" }, "geometry": { "type": "Point", "coordinates": [ 127.111796589562914, 36.466053608632713 ] } },
{ "type": "Feature", "properties": { "id": "12_130", "name": "공주 반죽동 당간지주", "era": "통일신라시대", "category": "보물", "location": "충청남도 공주시" }, "geometry": { "type": "Point", "coordinates": [ 127.122427596544114, 36.45169055331241 ] } },
{ "type": "Feature", "properties": { "id": "12_131", "name": "구례 연곡사 삼층석탑", "era": "통일신라시대", "category": "보물", "location": "전라남도 구례군" }, "geometry": { "type": "Point", "coordinates": [ 127.587389766714168, 35.254483380182272 ] } },
{ "type": "Feature", "properties": { "id": "12_132", "name": "구례 연곡사 현각선사탑비", "era": "고려시대", "category": "보물", "location": "전라남도 구례군" }, "geometry": { "type": "Point", "coordinates": [ 127.587304595566735, 35.254870187566219 ] } },
{ "type": "Feature", "properties": { "id": "12_133", "name": "구례 연곡사 동 승탑비", "era": "고려시대", "category": "보물", "location": "전라남도 구례군" }, "geometry": { "type": "Point", "coordinates": [ 127.588325840558085, 35.255182676847348 ] } },
{ "type": "Feature", "properties": { "id": "12_134", "name": "구례 연곡사 소요대사탑", "era": "조선시대", "category": "보물", "location": "전라남도 구례군" }, "geometry": { "type": "Point", "coordinates": [ 127.586879811564074, 35.255165853064454 ] } },
{ "type": "Feature", "properties": { "id": "12_135", "name": "장흥 보림사 동 승탑", "era": "통일신라시대", "category": "보물", "location": "전라남도 장흥군" }, "geometry": { "type": "Point", "coordinates": [ 126.899894783725045, 34.808490274341324 ] } },
{ "type": "Feature", "properties": { "id": "12_137", "name": "장흥 보림사 보조선사탑", "era": "통일신라시대", "category": "보물", "location": "전라남도 장흥군" }, "geometry": { "type": "Point", "coordinates": [ 126.89748550173168, 34.808513738514286 ] } },
{ "type": "Feature", "properties": { "id": "12_138", "name": "장흥 보림사 보조선사탑비", "era": "통일신라시대", "category": "보물", "location": "전라남도 장흥군" }, "geometry": { "type": "Point", "coordinates": [ 126.897360320570584, 34.808282828521335 ] } },
{ "type": "Feature", "properties": { "id": "12_139", "name": "함안 방어산 마애약사여래삼존입상", "era": "통일신라시대", "category": "보물", "location": "경상남도 함안군" }, "geometry": { "type": "Point", "coordinates": [ 128.301149176395597, 35.247911418380582 ] } },
{ "type": "Feature", "properties": { "id": "12_140", "name": "강화 정수사 법당", "era": "조선시대", "category": "보물", "location": "인천광역시 강화군" }, "geometry": { "type": "Point", "coordinates": [ 126.445341943784811, 37.607821380888318 ] } },
{ "type": "Feature", "properties": { "id": "12_141", "name": "청양 장곡사 상 대웅전", "era": "고려시대", "category": "보물", "location": "충청남도 청양군" }, "geometry": { "type": "Point", "coordinates": [ 126.860267783475635, 36.417626408750159 ] } },
{ "type": "Feature", "properties": { "id": "12_142", "name": "춘천 청평사 회전문", "era": "조선시대", "category": "보물", "location": "강원특별자치도 춘천시" }, "geometry": { "type": "Point", "coordinates": [ 127.80894778257084, 37.986173257903708 ] } },
{ "type": "Feature", "properties": { "id": "12_143", "name": "강릉 오죽헌", "era": "조선시대", "category": "보물", "location": "강원특별자치도 강릉시" }, "geometry": { "type": "Point", "coordinates": [ 128.877730453000311, 37.779329538912428 ] } },
{ "type": "Feature", "properties": { "id": "12_144", "name": "서울 홍제동 오층석탑", "era": "고려시대", "category": "보물", "location": "서울특별시 용산구" }, "geometry": { "type": "Point", "coordinates": [ 126.981004199992512, 37.522059451879109 ] } },
{ "type": "Feature", "properties": { "id": "12_145", "name": "정읍 은선리 삼층석탑", "era": "고려시대", "category": "보물", "location": "전북특별자치도 정읍시" }, "geometry": { "type": "Point", "coordinates": [ 126.793664937306886, 35.643674404640528 ] } },
{ "type": "Feature", "properties": { "id": "12_147", "name": "문경 봉암사 삼층석탑", "era": "통일신라시대", "category": "보물", "location": "경상북도 문경시" }, "geometry": { "type": "Point", "coordinates": [ 128.005347401200879, 36.700087745240921 ] } },
{ "type": "Feature", "properties": { "id": "12_148", "name": "화순 쌍봉사 철감선사탑비", "era": "통일신라시대", "category": "보물", "location": "전라남도 화순군" }, "geometry": { "type": "Point", "coordinates": [ 127.059098900127282, 34.888231001161223 ] } },
{ "type": "Feature", "properties": { "id": "12_149", "name": "문경 봉암사 정진대사탑", "era": "고려시대", "category": "보물", "location": "경상북도 문경시" }, "geometry": { "type": "Point", "coordinates": [ 128.010199700190043, 36.701275718467642 ] } },
{ "type": "Feature", "properties": { "id": "12_150", "name": "문경 봉암사 정진대사탑비", "era": "고려시대", "category": "보물", "location": "경상북도 문경시" }, "geometry": { "type": "Point", "coordinates": [ 128.00991068952797, 36.699575221031417 ] } },
{ "type": "Feature", "properties": { "id": "12_151", "name": "울주 망해사지 승탑", "era": "통일신라시대", "category": "보물", "location": "울산광역시 울주군" }, "geometry": { "type": "Point", "coordinates": [ 129.238138105668753, 35.532869800391225 ] } },
{ "type": "Feature", "properties": { "id": "12_152", "name": "사직단 대문", "era": "조선시대", "category": "보물", "location": "서울특별시 종로구" }, "geometry": { "type": "Point", "coordinates": [ 126.968631845771753, 37.57570208761036 ] } },
{ "type": "Feature", "properties": { "id": "12_153", "name": "강화 전등사 대웅전", "era": "조선시대", "category": "보물", "location": "인천광역시 강화군" }, "geometry": { "type": "Point", "coordinates": [ 126.484802004496572, 37.632154483639695 ] } },
{ "type": "Feature", "properties": { "id": "12_154", "name": "강화 전등사 약사전", "era": "조선시대", "category": "보물", "location": "인천광역시 강화군" }, "geometry": { "type": "Point", "coordinates": [ 126.484416253414892, 37.632160550768198 ] } },
{ "type": "Feature", "properties": { "id": "12_155", "name": "여주 신륵사 조사당", "era": "조선시대", "category": "보물", "location": "경기도 여주시" }, "geometry": { "type": "Point", "coordinates": [ 127.661388925062084, 37.297911588035383 ] } },
{ "type": "Feature", "properties": { "id": "12_156", "name": "청양 장곡사 하 대웅전", "era": "조선시대", "category": "보물", "location": "충청남도 청양군" }, "geometry": { "type": "Point", "coordinates": [ 126.859698745872848, 36.417410168684448 ] } },
{ "type": "Feature", "properties": { "id": "12_157", "name": "안동 임청각", "era": "조선시대", "category": "보물", "location": "경상북도 안동시" }, "geometry": { "type": "Point", "coordinates": [ 128.744684179435126, 36.565129974808606 ] } },
{ "type": "Feature", "properties": { "id": "12_158", "name": "강릉 해운정", "era": "조선시대", "category": "보물", "location": "강원특별자치도 강릉시" }, "geometry": { "type": "Point", "coordinates": [ 128.891184085743276, 37.786177191245848 ] } },
{ "type": "Feature", "properties": { "id": "12_159", "name": "부여 장하리 삼층석탑", "era": "고려시대", "category": "보물", "location": "충청남도 부여군" }, "geometry": { "type": "Point", "coordinates": [ 126.947043245989448, 36.235348535484697 ] } },
{ "type": "Feature", "properties": { "id": "12_160", "name": "부여 무량사 오층석탑", "era": "고려시대", "category": "보물", "location": "충청남도 부여군" }, "geometry": { "type": "Point", "coordinates": [ 126.693324501013493, 36.316946480263844 ] } },
{ "type": "Feature", "properties": { "id": "12_161", "name": "경주 남산 용장사곡 삼층석탑", "era": "통일신라시대", "category": "보물", "location": "경상북도 경주시" }, "geometry": { "type": "Point", "coordinates": [ 129.222816226528153, 35.781107904789216 ] } },
{ "type": "Feature", "properties": { "id": "12_162", "name": "경주 남산 용장사곡 석조여래좌상", "era": "통일신라시대", "category": "보물", "location": "경상북도 경주시" }, "geometry": { "type": "Point", "coordinates": [ 129.22280096692981, 35.780831785604583 ] } },
{ "type": "Feature", "properties": { "id": "12_163", "name": "의성 관덕리 삼층석탑", "era": "통일신라시대", "category": "보물", "location": "경상북도 의성군" }, "geometry": { "type": "Point", "coordinates": [ 128.691398293098246, 36.431482813472655 ] } },
{ "type": "Feature", "properties": { "id": "12_164", "name": "칠곡 송림사 오층전탑", "era": "통일신라시대", "category": "보물", "location": "경상북도 칠곡군" }, "geometry": { "type": "Point", "coordinates": [ 128.577617892649414, 35.982179514116972 ] } },
{ "type": "Feature", "properties": { "id": "12_165", "name": "원주 거돈사지 원공국사탑", "era": "고려시대", "category": "보물", "location": "서울특별시 용산구" }, "geometry": { "type": "Point", "coordinates": [ 126.981543610248508, 37.523469673338525 ] } },
{ "type": "Feature", "properties": { "id": "12_166", "name": "강릉 보현사 낭원대사탑", "era": "고려시대", "category": "보물", "location": "강원특별자치도 강릉시" }, "geometry": { "type": "Point", "coordinates": [ 128.767368844393872, 37.738391053000022 ] } },
{ "type": "Feature", "properties": { "id": "12_167", "name": "강릉 보현사 낭원대사탑비", "era": "고려시대", "category": "보물", "location": "강원특별자치도 강릉시" }, "geometry": { "type": "Point", "coordinates": [ 128.769716784705111, 37.736697947718937 ] } },
{ "type": "Feature", "properties": { "id": "12_168", "name": "청도 운문사 금당 앞 석등", "era": "통일신라시대", "category": "보물", "location": "경상북도 청도군" }, "geometry": { "type": "Point", "coordinates": [ 128.959722825140943, 35.660949988981272 ] } },
{ "type": "Feature", "properties": { "id": "12_169", "name": "부여 석조", "era": "백제시대", "category": "보물", "location": "충청남도 부여군" }, "geometry": { "type": "Point", "coordinates": [ 126.918989357639447, 36.276362860428378 ] } },
{ "type": "Feature", "properties": { "id": "12_170", "name": "금동정지원명석가여래삼존입상", "era": "삼국시대", "category": "보물", "location": "충청남도 부여군" }, "geometry": { "type": "Point", "coordinates": [ 126.918989357639447, 36.276362860428378 ] } },
{ "type": "Feature", "properties": { "id": "12_171", "name": "청양 읍내리 석조여래삼존입상", "era": "고려시대", "category": "보물", "location": "충청남도 청양군" }, "geometry": { "type": "Point", "coordinates": [ 126.808375610740626, 36.454297974110709 ] } },
{ "type": "Feature", "properties": { "id": "12_172", "name": "경주 남산 불곡 마애여래좌상", "era": "삼국시대", "category": "보물", "location": "경상북도 경주시" }, "geometry": { "type": "Point", "coordinates": [ 129.230473863654652, 35.819009670916046 ] } },
{ "type": "Feature", "properties": { "id": "12_173", "name": "경주 남산 신선암 마애보살반가상", "era": "통일신라시대", "category": "보물", "location": "경상북도 경주시" }, "geometry": { "type": "Point", "coordinates": [ 129.234961165482446, 35.77151074271557 ] } },
{ "type": "Feature", "properties": { "id": "12_174", "name": "경주 남산 탑곡 마애불상군", "era": "통일신라시대", "category": "보물", "location": "경상북도 경주시" }, "geometry": { "type": "Point", "coordinates": [ 129.232821476384032, 35.814677563529642 ] } },
{ "type": "Feature", "properties": { "id": "12_175", "name": "의성 관덕동 석사자", "era": "통일신라시대", "category": "보물", "location": "대구광역시 수성구" }, "geometry": { "type": "Point", "coordinates": [ 128.637925230409166, 35.845859072139078 ] } },
{ "type": "Feature", "properties": { "id": "12_176", "name": "청도 박곡리 석조여래좌상", "era": "통일신라시대", "category": "보물", "location": "경상북도 청도군" }, "geometry": { "type": "Point", "coordinates": [ 128.922475260730153, 35.66845248946894 ] } },
{ "type": "Feature", "properties": { "id": "12_177", "name": "대전 회덕 동춘당", "era": "조선시대", "category": "보물", "location": "대전광역시 대덕구" }, "geometry": { "type": "Point", "coordinates": [ 127.441459408290712, 36.364985947533683 ] } },
{ "type": "Feature", "properties": { "id": "12_178", "name": "안동 도산서원 전교당", "era": "조선시대", "category": "보물", "location": "경상북도 안동시" }, "geometry": { "type": "Point", "coordinates": [ 128.843512382331852, 36.727363111844419 ] } },
{ "type": "Feature", "properties": { "id": "12_179", "name": "안동 도산서원 상덕사 및 삼문", "era": "조선시대", "category": "보물", "location": "경상북도 안동시" }, "geometry": { "type": "Point", "coordinates": [ 128.843651775322513, 36.727546353156477 ] } },
{ "type": "Feature", "properties": { "id": "12_180", "name": "창녕 관룡사 대웅전", "era": "조선시대", "category": "보물", "location": "경상남도 창녕군" }, "geometry": { "type": "Point", "coordinates": [ 128.553456849632852, 35.531975323336532 ] } },
{ "type": "Feature", "properties": { "id": "12_181", "name": "강릉향교 대성전", "era": "조선시대", "category": "보물", "location": "강원특별자치도 강릉시" }, "geometry": { "type": "Point", "coordinates": [ 128.895268077043937, 37.763558556954678 ] } },
{ "type": "Feature", "properties": { "id": "12_182", "name": "서울 북한산 구기동 마애여래좌상", "era": "고려시대", "category": "보물", "location": "서울특별시 종로구" }, "geometry": { "type": "Point", "coordinates": [ 126.959330534618616, 37.627174368865447 ] } },
{ "type": "Feature", "properties": { "id": "12_183", "name": "보은 법주사 마애여래의좌상", "era": "고려시대", "category": "보물", "location": "충청북도 보은군" }, "geometry": { "type": "Point", "coordinates": [ 127.832010993122807, 36.541402301968709 ] } },
{ "type": "Feature", "properties": { "id": "12_184", "name": "부여 대조사 석조미륵보살입상", "era": "고려시대", "category": "보물", "location": "충청남도 부여군" }, "geometry": { "type": "Point", "coordinates": [ 126.900392404003028, 36.191000358951506 ] } },
{ "type": "Feature", "properties": { "id": "12_185", "name": "논산 개태사지 석조여래삼존입상", "era": "고려시대", "category": "보물", "location": "충청남도 논산시" }, "geometry": { "type": "Point", "coordinates": [ 127.229275915126195, 36.240981098661109 ] } },
{ "type": "Feature", "properties": { "id": "12_186", "name": "영주 북지리 석조여래좌상(1963-1)", "era": "통일신라시대", "category": "보물", "location": "경상북도 영주시" }, "geometry": { "type": "Point", "coordinates": [ 128.687403109138899, 36.999842597477596 ] } },
{ "type": "Feature", "properties": { "id": "12_187", "name": "영주 가흥동 마애여래삼존상 및 여래좌상", "era": "통일신라시대", "category": "보물", "location": "경상북도 영주시" }, "geometry": { "type": "Point", "coordinates": [ 128.612947056362287, 36.809962958179653 ] } },
{ "type": "Feature", "properties": { "id": "12_188", "name": "합천 치인리 마애여래입상", "era": "통일신라시대", "category": "보물", "location": "경상남도 합천군" }, "geometry": { "type": "Point", "coordinates": [ 128.116704115619285, 35.813355070276749 ] } },
{ "type": "Feature", "properties": { "id": "12_189", "name": "철원 도피안사 삼층석탑", "era": "통일신라시대", "category": "보물", "location": "강원특별자치도 철원군" }, "geometry": { "type": "Point", "coordinates": [ 127.218081858160389, 38.240434595460073 ] } },
{ "type": "Feature", "properties": { "id": "12_190", "name": "서천 성북리 오층석탑", "era": "고려시대", "category": "보물", "location": "충청남도 서천군" }, "geometry": { "type": "Point", "coordinates": [ 126.598639128596844, 36.147398397845016 ] } },
{ "type": "Feature", "properties": { "id": "12_191", "name": "여주 신륵사 다층석탑", "era": "조선시대", "category": "보물", "location": "경기도 여주시" }, "geometry": { "type": "Point", "coordinates": [ 127.661687708670911, 37.297538112843583 ] } },
{ "type": "Feature", "properties": { "id": "12_192", "name": "여주 신륵사 다층전탑", "era": "고려시대", "category": "보물", "location": "경기도 여주시" }, "geometry": { "type": "Point", "coordinates": [ 127.662231742353356, 37.297118702425287 ] } },
{ "type": "Feature", "properties": { "id": "12_193", "name": "창녕 인양사 조성비", "era": "통일신라시대", "category": "보물", "location": "경상남도 창녕군" }, "geometry": { "type": "Point", "coordinates": [ 128.49411231493923, 35.543840097203663 ] } },
{ "type": "Feature", "properties": { "id": "12_194", "name": "여주 신륵사 보제존자석종", "era": "고려시대", "category": "보물", "location": "경기도 여주시" }, "geometry": { "type": "Point", "coordinates": [ 127.661663038432636, 37.298374993417376 ] } },
{ "type": "Feature", "properties": { "id": "12_195", "name": "여주 신륵사 보제존자석종비", "era": "고려시대", "category": "보물", "location": "경기도 여주시" }, "geometry": { "type": "Point", "coordinates": [ 127.661739102815815, 37.298347401790892 ] } },
{ "type": "Feature", "properties": { "id": "12_196", "name": "여주 신륵사 대장각기비", "era": "고려시대", "category": "보물", "location": "경기도 여주시" }, "geometry": { "type": "Point", "coordinates": [ 127.662221570778655, 37.297376193265414 ] } },
{ "type": "Feature", "properties": { "id": "12_197", "name": "여주 신륵사 보제존자석종 앞 석등", "era": "고려시대", "category": "보물", "location": "경기도 여주시" }, "geometry": { "type": "Point", "coordinates": [ 127.661625350529221, 37.298347525928442 ] } },
{ "type": "Feature", "properties": { "id": "12_198", "name": "논산 관촉사 석등", "era": "고려시대", "category": "보물", "location": "충청남도 논산시" }, "geometry": { "type": "Point", "coordinates": [ 127.112937972630149, 36.188227029417263 ] } },
{ "type": "Feature", "properties": { "id": "12_199", "name": "부여 무량사 석등", "era": "통일신라시대", "category": "보물", "location": "충청남도 부여군" }, "geometry": { "type": "Point", "coordinates": [ 126.69332292948971, 36.316894646531573 ] } },
{ "type": "Feature", "properties": { "id": "12_200", "name": "군산 발산리 석등", "era": "통일신라시대", "category": "보물", "location": "전북특별자치도 군산시" }, "geometry": { "type": "Point", "coordinates": [ 126.79651664720997, 35.959435973122076 ] } },
{ "type": "Feature", "properties": { "id": "12_201", "name": "서울 장의사지 당간지주", "era": "통일신라시대", "category": "보물", "location": "서울특별시 종로구" }, "geometry": { "type": "Point", "coordinates": [ 126.961234454721222, 37.602707585131874 ] } },
{ "type": "Feature", "properties": { "id": "12_203", "name": "백자 청화투각모란당초문 항아리", "era": "조선시대", "category": "보물", "location": "서울특별시 용산구" }, "geometry": { "type": "Point", "coordinates": [ 126.9803502416529, 37.524041377251407 ] } },
{ "type": "Feature", "properties": { "id": "12_204", "name": "안동 개목사 원통전", "era": "조선시대", "category": "보물", "location": "경상북도 안동시" }, "geometry": { "type": "Point", "coordinates": [ 128.667959465338384, 36.658018656442117 ] } },
{ "type": "Feature", "properties": { "id": "12_205", "name": "대구 동화사 마애여래좌상", "era": "통일신라시대", "category": "보물", "location": "대구광역시 동구" }, "geometry": { "type": "Point", "coordinates": [ 128.701654681999116, 35.985516340044398 ] } },
{ "type": "Feature", "properties": { "id": "12_206", "name": "대구 동화사 비로암 석조비로자나불좌상", "era": "통일신라시대", "category": "보물", "location": "대구광역시 동구" }, "geometry": { "type": "Point", "coordinates": [ 128.702146738202828, 35.992268539849924 ] } },
{ "type": "Feature", "properties": { "id": "12_207", "name": "김천 갈항사지 석조여래좌상", "era": "통일신라시대", "category": "보물", "location": "경상북도 김천시" }, "geometry": { "type": "Point", "coordinates": [ 128.272014273177916, 36.088185107597042 ] } },
{ "type": "Feature", "properties": { "id": "12_208", "name": "의성 고운사 석조여래좌상", "era": "통일신라시대", "category": "보물", "location": "경상북도 의성군" }, "geometry": { "type": "Point", "coordinates": [ 128.750740520297114, 36.458542425753841 ] } },
{ "type": "Feature", "properties": { "id": "12_209", "name": "대구 동화사 비로암 삼층석탑", "era": "통일신라시대", "category": "보물", "location": "대구광역시 동구" }, "geometry": { "type": "Point", "coordinates": [ 128.702146356936964, 35.992105493801319 ] } },
{ "type": "Feature", "properties": { "id": "12_210", "name": "대구 동화사 금당암 동·서 삼층석탑", "era": "통일신라시대", "category": "보물", "location": "대구광역시 동구" }, "geometry": { "type": "Point", "coordinates": [ 128.703970944148438, 35.992534010987555 ] } },
{ "type": "Feature", "properties": { "id": "12_211", "name": "영주 부석사 삼층석탑", "era": "통일신라시대", "category": "보물", "location": "경상북도 영주시" }, "geometry": { "type": "Point", "coordinates": [ 128.687932167824698, 36.998823885076177 ] } },
{ "type": "Feature", "properties": { "id": "12_212", "name": "부산 범어사 삼층석탑", "era": "통일신라시대", "category": "보물", "location": "부산광역시 금정구" }, "geometry": { "type": "Point", "coordinates": [ 129.068405225997338, 35.284044854689128 ] } },
{ "type": "Feature", "properties": { "id": "12_213", "name": "칠곡 선봉사 대각국사비", "era": "고려시대", "category": "보물", "location": "경상북도 칠곡군" }, "geometry": { "type": "Point", "coordinates": [ 128.327952533136624, 36.086901678989804 ] } },
{ "type": "Feature", "properties": { "id": "12_214", "name": "포항 보경사 원진국사비", "era": "고려시대", "category": "보물", "location": "경상북도 포항시" }, "geometry": { "type": "Point", "coordinates": [ 129.318214392793806, 36.252541387435727 ] } },
{ "type": "Feature", "properties": { "id": "12_215", "name": "합천 청량사 석등", "era": "통일신라시대", "category": "보물", "location": "경상남도 합천군" }, "geometry": { "type": "Point", "coordinates": [ 128.109705260226377, 35.772495031223464 ] } },
{ "type": "Feature", "properties": { "id": "12_216", "name": "대구 동화사 당간지주", "era": "통일신라시대", "category": "보물", "location": "대구광역시 동구" }, "geometry": { "type": "Point", "coordinates": [ 128.704436459934527, 35.992099107499769 ] } },
{ "type": "Feature", "properties": { "id": "12_217", "name": "영주 부석사 당간지주", "era": "통일신라시대", "category": "보물", "location": "경상북도 영주시" }, "geometry": { "type": "Point", "coordinates": [ 128.685653660325528, 36.997383652120497 ] } },
{ "type": "Feature", "properties": { "id": "12_218", "name": "공주 갑사 철당간", "era": "통일신라시대", "category": "보물", "location": "충청남도 공주시" }, "geometry": { "type": "Point", "coordinates": [ 127.185395074427589, 36.364760767521737 ] } },
{ "type": "Feature", "properties": { "id": "12_219", "name": "공주 갑사 승탑", "era": "고려시대", "category": "보물", "location": "충청남도 공주시" }, "geometry": { "type": "Point", "coordinates": [ 127.186432930619318, 36.364393468235903 ] } },
{ "type": "Feature", "properties": { "id": "12_220", "name": "대구 산격동 사자 주악장식 승탑", "era": "고려시대", "category": "보물", "location": "대구광역시 북구" }, "geometry": { "type": "Point", "coordinates": [ 128.613754539291307, 35.888767076705498 ] } },
{ "type": "Feature", "properties": { "id": "12_221", "name": "순천 송광사 하사당", "era": "조선시대", "category": "보물", "location": "전라남도 순천시" }, "geometry": { "type": "Point", "coordinates": [ 127.276320510684641, 35.002471334499269 ] } },
{ "type": "Feature", "properties": { "id": "12_222", "name": "합천 해인사 석조여래입상", "era": "통일신라시대", "category": "보물", "location": "경상남도 합천군" }, "geometry": { "type": "Point", "coordinates": [ 128.116975696865836, 35.821004170603103 ] } },
{ "type": "Feature", "properties": { "id": "12_223", "name": "합천 청량사 석조여래좌상", "era": "통일신라시대", "category": "보물", "location": "경상남도 합천군" }, "geometry": { "type": "Point", "coordinates": [ 128.109743534121918, 35.772780426553787 ] } },
{ "type": "Feature", "properties": { "id": "12_224", "name": "합천 청량사 삼층석탑", "era": "통일신라시대", "category": "보물", "location": "경상남도 합천군" }, "geometry": { "type": "Point", "coordinates": [ 128.109697720990965, 35.772539264613698 ] } },
{ "type": "Feature", "properties": { "id": "12_225", "name": "임실 진구사지 석등", "era": "통일신라시대", "category": "보물", "location": "전북특별자치도 임실군" }, "geometry": { "type": "Point", "coordinates": [ 127.210445848734992, 35.634178689911174 ] } },
{ "type": "Feature", "properties": { "id": "12_226", "name": "분청사기 상감연화문 편병", "era": "조선시대", "category": "보물", "location": "대구광역시 북구" }, "geometry": { "type": "Point", "coordinates": [ 128.613754539291307, 35.888767076705498 ] } },
{ "type": "Feature", "properties": { "id": "12_227", "name": "감지은니 묘법연화경 권7(2007)", "era": "", "category": "보물", "location": "서울특별시 용산구" }, "geometry": { "type": "Point", "coordinates": [ 126.9803502416529, 37.524041377251407 ] } },
{ "type": "Feature", "properties": { "id": "12_228", "name": "감지금니 묘법연화경 권6", "era": "고려시대", "category": "보물", "location": "서울특별시 용산구" }, "geometry": { "type": "Point", "coordinates": [ 126.9803502416529, 37.524041377251407 ] } },
{ "type": "Feature", "properties": { "id": "12_229", "name": "백지은니 대불정여래밀인수증요의제보살만행수능엄경 권10", "era": "고려시대", "category": "보물", "location": "대구광역시 북구" }, "geometry": { "type": "Point", "coordinates": [ 128.612020927004153, 35.891602360242437 ] } },
{ "type": "Feature", "properties": { "id": "12_230", "name": "장수향교 대성전", "era": "조선시대", "category": "보물", "location": "전북특별자치도 장수군" }, "geometry": { "type": "Point", "coordinates": [ 127.523252191231734, 35.648472208702948 ] } },
{ "type": "Feature", "properties": { "id": "12_231", "name": "곡성 태안사 광자대사탑", "era": "고려시대", "category": "보물", "location": "전라남도 곡성군" }, "geometry": { "type": "Point", "coordinates": [ 127.386924168786734, 35.131130525209052 ] } },
{ "type": "Feature", "properties": { "id": "12_232", "name": "곡성 태안사 광자대사탑비", "era": "고려시대", "category": "보물", "location": "전라남도 곡성군" }, "geometry": { "type": "Point", "coordinates": [ 127.386919241792015, 35.131063119438991 ] } },
{ "type": "Feature", "properties": { "id": "12_233", "name": "군산 발산리 오층석탑", "era": "고려시대", "category": "보물", "location": "전북특별자치도 군산시" }, "geometry": { "type": "Point", "coordinates": [ 126.796719056750234, 35.959330923907054 ] } },
{ "type": "Feature", "properties": { "id": "12_234", "name": "남원 광한루", "era": "조선시대", "category": "보물", "location": "전북특별자치도 남원시" }, "geometry": { "type": "Point", "coordinates": [ 127.379786144479297, 35.403949125861629 ] } },
{ "type": "Feature", "properties": { "id": "12_235", "name": "여주 고달사지 쌍사자 석등", "era": "고려시대", "category": "보물", "location": "서울특별시 용산구" }, "geometry": { "type": "Point", "coordinates": [ 126.9803502416529, 37.524041377251407 ] } },
{ "type": "Feature", "properties": { "id": "12_236", "name": "정읍 피향정", "era": "조선시대", "category": "보물", "location": "전북특별자치도 정읍시" }, "geometry": { "type": "Point", "coordinates": [ 126.942970439060574, 35.651348199172205 ] } },
{ "type": "Feature", "properties": { "id": "12_237", "name": "고창 선운사 대웅전", "era": "조선시대", "category": "보물", "location": "전북특별자치도 고창군" }, "geometry": { "type": "Point", "coordinates": [ 126.578159931589084, 35.497229308805039 ] } },
{ "type": "Feature", "properties": { "id": "12_238", "name": "부안 내소사 대웅보전", "era": "조선시대", "category": "보물", "location": "전북특별자치도 부안군" },